<?xml version="1.0" encoding="utf-8"?>
<JPPlatforms xmlns="urn:connexionz-co-nz:jp" xmlns:xsi="http://www.w3.org/2001/XMLSchema-instance" xsi:schemaLocation="urn:connexionz-co-nz:jp JourneyPlanner.xsd">
  <Content Expires="2017-07-23T03:30:00+12:00" />
  <Platform PlatformTag="2980" PlatformNo="47280" Name="AGHS" BearingToRoad="2.6606268e+002" RoadName="Avonside Dr">
    <Position Lat="-4.352447905000000e+001" Long="1.726611665000000e+002" />
  </Platform>
  <Platform PlatformTag="1219" PlatformNo="28142" Name="Addington Village" BearingToRoad="3.2193924e+002" RoadName="Lincoln Rd">
    <Position Lat="-4.354269524000000e+001" Long="1.726134222000000e+002" />
  </Platform>
  <Platform PlatformTag="1220" PlatformNo="44108" Name="Addington Village" BearingToRoad="1.4198888e+002" RoadName="Lincoln Rd">
    <Position Lat="-4.354386705000000e+001" Long="1.726111654000000e+002" />
  </Platform>
  <Platform PlatformTag="2940" PlatformNo="45477" Name="Aidanfield Dr near Bibiana St" BearingToRoad="2.1811232e+002" RoadName="Aidanfield Dr">
    <Position Lat="-4.356581921000000e+001" Long="1.725743414000000e+002" />
  </Platform>
  <Platform PlatformTag="2941" PlatformNo="47192" Name="Aidanfield Dr near Bibiana St" BearingToRoad="3.8112324e+001" RoadName="Aidanfield Dr">
    <Position Lat="-4.356595693000000e+001" Long="1.725742336000000e+002" />
  </Platform>
  <Platform PlatformTag="3135" PlatformNo="51093" Name="Aidenfield (near McMahon Dr)" BearingToRoad="5.2853600e+001" RoadName="Aidenfield Dr">
    <Position Lat="-4.356244000000000e+001" Long="1.725664330000000e+002" />
  </Platform>
  <Platform PlatformTag="3136" PlatformNo="51086" Name="Aidenfield (near McMahon Dr)" BearingToRoad="2.3285359e+002" RoadName="Aidenfield Dr">
    <Position Lat="-4.356248800000000e+001" Long="1.725667760000000e+002" />
  </Platform>
  <Platform PlatformTag="1407" PlatformNo="19722" Name="Airport/Antarctic Centre" BearingToRoad="3.1050864e+002" RoadName="Orchard Rd">
    <Position Lat="-4.348853033100000e+001" Long="1.725461945030000e+002" />
  </Platform>
  <Platform PlatformTag="2195" PlatformNo="19714" Name="Airport/Antarctic Centre" BearingToRoad="1.3050865e+002" RoadName="Orchard Rd">
    <Position Lat="-4.348826383300000e+001" Long="1.725462833250000e+002" />
  </Platform>
  <Platform PlatformTag="2707" PlatformNo="40778" Name="Albert St near Nelson Tce" BearingToRoad="2.4580704e+002" RoadName="Albert St">
    <Position Lat="-4.439171130000000e+001" Long="1.712449975000000e+002" />
  </Platform>
  <Platform PlatformTag="3161" PlatformNo="52012" Name="Albert St near Nelson Tce" BearingToRoad="6.5807037e+001" RoadName="Albert St">
    <Position Lat="-4.439154800000000e+001" Long="1.712447150000000e+002" />
  </Platform>
  <Platform PlatformTag="753" PlatformNo="37853" Name="Aldwins Rd near Bass St" BearingToRoad="1.1987105e+002" RoadName="Aldwins Rd">
    <Position Lat="-4.353910569000000e+001" Long="1.726679642000000e+002" />
  </Platform>
  <Platform PlatformTag="757" PlatformNo="36917" Name="Aldwins Rd near Bass St" BearingToRoad="2.9883267e+002" RoadName="Aldwins Rd">
    <Position Lat="-4.353911514000000e+001" Long="1.726682484000000e+002" />
  </Platform>
  <Platform PlatformTag="752" PlatformNo="37750" Name="Aldwins Rd near Edmond St" BearingToRoad="1.1772323e+002" RoadName="Aldwins Rd">
    <Position Lat="-4.354088880000000e+001" Long="1.726667356000000e+002" />
  </Platform>
  <Platform PlatformTag="754" PlatformNo="11206" Name="Aldwins Rd near Harrow St" BearingToRoad="1.1942519e+002" RoadName="Aldwins Rd">
    <Position Lat="-4.353718861000000e+001" Long="1.726693378000000e+002" />
  </Platform>
  <Platform PlatformTag="758" PlatformNo="36901" Name="Aldwins Rd near Harrow St" BearingToRoad="3.0008405e+002" RoadName="Aldwins Rd">
    <Position Lat="-4.353645034000000e+001" Long="1.726702574000000e+002" />
  </Platform>
  <Platform PlatformTag="755" PlatformNo="11309" Name="Aldwins Rd near Marlborough St" BearingToRoad="1.3037068e+002" RoadName="Aldwins Rd">
    <Position Lat="-4.353502082000000e+001" Long="1.726712142000000e+002" />
  </Platform>
  <Platform PlatformTag="759" PlatformNo="36891" Name="Aldwins Rd near Marlborough St" BearingToRoad="3.1291077e+002" RoadName="Aldwins Rd">
    <Position Lat="-4.353442311000000e+001" Long="1.726723157000000e+002" />
  </Platform>
  <Platform PlatformTag="756" PlatformNo="36929" Name="Aldwins Rd near Matlock St" BearingToRoad="2.9868835e+002" RoadName="Aldwins Rd">
    <Position Lat="-4.354177006000000e+001" Long="1.726664642000000e+002" />
  </Platform>
  <Platform PlatformTag="1587" PlatformNo="38243" Name="Amyes Rd near Branston St" BearingToRoad="4.9081589e+001" RoadName="Amyes Rd">
    <Position Lat="-4.354736730000000e+001" Long="1.725276387000000e+002" />
  </Platform>
  <Platform PlatformTag="1588" PlatformNo="38236" Name="Amyes Rd near Branston St" BearingToRoad="2.2908159e+002" RoadName="Amyes Rd">
    <Position Lat="-4.354726876000000e+001" Long="1.725277469000000e+002" />
  </Platform>
  <Platform PlatformTag="1585" PlatformNo="38262" Name="Amyes Rd near Shands Rd" BearingToRoad="4.8504654e+001" RoadName="Amyes Rd">
    <Position Lat="-4.354640000000000e+001" Long="1.725265000000000e+002" />
  </Platform>
  <Platform PlatformTag="1586" PlatformNo="24247" Name="Amyes Rd near Shands Rd" BearingToRoad="2.2837364e+002" RoadName="Amyes Rd">
    <Position Lat="-4.354564915000000e+001" Long="1.725257377000000e+002" />
  </Platform>
  <Platform PlatformTag="1591" PlatformNo="38204" Name="Amyes Rd near Trevor St" BearingToRoad="2.2910971e+002" RoadName="Amyes Rd">
    <Position Lat="-4.355131763000000e+001" Long="1.725327662000000e+002" />
  </Platform>
  <Platform PlatformTag="1592" PlatformNo="38197" Name="Amyes Rd near Trevor St" BearingToRoad="4.9109707e+001" RoadName="Amyes Rd">
    <Position Lat="-4.355144587000000e+001" Long="1.725326919000000e+002" />
  </Platform>
  <Platform PlatformTag="1589" PlatformNo="38227" Name="Amyes Rd near Witham St" BearingToRoad="4.9088280e+001" RoadName="Amyes Rd">
    <Position Lat="-4.354937537000000e+001" Long="1.725301309000000e+002" />
  </Platform>
  <Platform PlatformTag="1590" PlatformNo="38215" Name="Amyes Rd near Witham St" BearingToRoad="2.2908827e+002" RoadName="Amyes Rd">
    <Position Lat="-4.354952810000000e+001" Long="1.725305444000000e+002" />
  </Platform>
  <Platform PlatformTag="3061" PlatformNo="50636" Name="Annex Rd near Birmingham Dr" BearingToRoad="2.1425487e+002" RoadName="Annex Rd">
    <Position Lat="-4.354353500000000e+001" Long="1.725828850000000e+002" />
  </Platform>
  <Platform PlatformTag="3060" PlatformNo="50627" Name="Annex Rd near Nazareth Ave" BearingToRoad="1.4382199e+001" RoadName="Annex Rd">
    <Position Lat="-4.354331400000000e+001" Long="1.725817860000000e+002" />
  </Platform>
  <Platform PlatformTag="3062" PlatformNo="50643" Name="Annex Rd near Railway" BearingToRoad="5.1762753e+001" RoadName="Annex Rd">
    <Position Lat="-4.354016100000000e+001" Long="1.725773590000000e+002" />
  </Platform>
  <Platform PlatformTag="3063" PlatformNo="50658" Name="Annex Rd near Railway" BearingToRoad="2.3176276e+002" RoadName="Annex Rd">
    <Position Lat="-4.354040500000000e+001" Long="1.725778830000000e+002" />
  </Platform>
  <Platform PlatformTag="1599" PlatformNo="29481" Name="Antigua St near Brougham St" BearingToRoad="9.0729713e+001" RoadName="Antigua St">
    <Position Lat="-4.354708184000000e+001" Long="1.726278427000000e+002" />
  </Platform>
  <Platform PlatformTag="1603" PlatformNo="29468" Name="Antigua St near Disraeli St" BearingToRoad="9.0984550e+001" RoadName="Antigua St">
    <Position Lat="-4.354250037000000e+001" Long="1.726278382000000e+002" />
  </Platform>
  <Platform PlatformTag="3104" PlatformNo="51135" Name="Antigua St near Disraeli St" BearingToRoad="2.7103021e+002" RoadName="Antigua St">
    <Position Lat="-4.354286000000000e+001" Long="1.726280210000000e+002" />
  </Platform>
  <Platform PlatformTag="1601" PlatformNo="32053" Name="Antigua St near Fairfield Ave" BearingToRoad="9.1008942e+001" RoadName="Antigua St">
    <Position Lat="-4.354424809000000e+001" Long="1.726278516000000e+002" />
  </Platform>
  <Platform PlatformTag="1602" PlatformNo="29577" Name="Antigua St near Fairfield Ave" BearingToRoad="2.7098456e+002" RoadName="Antigua St">
    <Position Lat="-4.354390210000000e+001" Long="1.726280228000000e+002" />
  </Platform>
  <Platform PlatformTag="1600" PlatformNo="29583" Name="Antigua St near Ruskin St" BearingToRoad="2.7072971e+002" RoadName="Antigua St">
    <Position Lat="-4.354685458000000e+001" Long="1.726280404000000e+002" />
  </Platform>
  <Platform PlatformTag="1965" PlatformNo="36051" Name="Ara Institute" BearingToRoad="2.3943237e+001" RoadName="Ferry Rd">
    <Position Lat="-4.353678536000000e+001" Long="1.726442168000000e+002" />
  </Platform>
  <Platform PlatformTag="2561" PlatformNo="44242" Name="Ashley St near Coldstream Rd" BearingToRoad="8.1113289e+001" RoadName="Ashley St">
    <Position Lat="-4.329314298000000e+001" Long="1.725936365000000e+002" />
  </Platform>
  <Platform PlatformTag="2562" PlatformNo="44566" Name="Ashley St near Duke St" BearingToRoad="8.0687485e+001" RoadName="Ashley St">
    <Position Lat="-4.329797036000000e+001" Long="1.725947985000000e+002" />
  </Platform>
  <Platform PlatformTag="2563" PlatformNo="44584" Name="Ashley St near Duke St" BearingToRoad="2.6068747e+002" RoadName="Ashley St">
    <Position Lat="-4.329777202000000e+001" Long="1.725949233000000e+002" />
  </Platform>
  <Platform PlatformTag="2560" PlatformNo="44261" Name="Ashley St near Rickton Pl" BearingToRoad="2.6111328e+002" RoadName="Ashley St">
    <Position Lat="-4.329353874000000e+001" Long="1.725938920000000e+002" />
  </Platform>
  <Platform PlatformTag="2558" PlatformNo="44288" Name="Ashley St near River Rd" BearingToRoad="8.1250694e+001" RoadName="Ashley St">
    <Position Lat="-4.328969593000000e+001" Long="1.725927825000000e+002" />
  </Platform>
  <Platform PlatformTag="2559" PlatformNo="44014" Name="Ashley St near River Rd" BearingToRoad="2.6125070e+002" RoadName="Ashley St">
    <Position Lat="-4.328972626000000e+001" Long="1.725929505000000e+002" />
  </Platform>
  <Platform PlatformTag="763" PlatformNo="21677" Name="Aston Dr near Ballance St" BearingToRoad="2.5876508e+002" RoadName="Aston Dr">
    <Position Lat="-4.348367178000000e+001" Long="1.727202481000000e+002" />
  </Platform>
  <Platform PlatformTag="761" PlatformNo="21654" Name="Aston Dr near Beach Rd" BearingToRoad="2.5872903e+002" RoadName="Aston Dr">
    <Position Lat="-4.348591408000000e+001" Long="1.727209085000000e+002" />
  </Platform>
  <Platform PlatformTag="762" PlatformNo="21568" Name="Aston Dr near Beach Rd" BearingToRoad="7.8764587e+001" RoadName="Aston Dr">
    <Position Lat="-4.348572900000000e+001" Long="1.727207080000000e+002" />
  </Platform>
  <Platform PlatformTag="764" PlatformNo="21886" Name="Aston Dr near Orlando Cres" BearingToRoad="7.8754257e+001" RoadName="Aston Dr">
    <Position Lat="-4.348314835000000e+001" Long="1.727199325000000e+002" />
  </Platform>
  <Platform PlatformTag="3311" PlatformNo="51685" Name="Aston Dr near Torres Pines" BearingToRoad="2.0737114e+002" RoadName="Aston Dr">
    <Position Lat="-4.347529300000000e+001" Long="1.727149870000000e+002" />
  </Platform>
  <Platform PlatformTag="3312" PlatformNo="51692" Name="Aston Dr near Torres Pines" BearingToRoad="2.7485266e+001" RoadName="Aston Dr">
    <Position Lat="-4.347544600000000e+001" Long="1.727151950000000e+002" />
  </Platform>
  <Platform PlatformTag="707" PlatformNo="10331" Name="Avonhead Mall" BearingToRoad="2.9392569e+002" RoadName="Withells Rd">
    <Position Lat="-4.351099863200000e+001" Long="1.725562087530000e+002" />
  </Platform>
  <Platform PlatformTag="708" PlatformNo="10214" Name="Avonhead Mall" BearingToRoad="1.1392570e+002" RoadName="Withells Rd">
    <Position Lat="-4.351082708800000e+001" Long="1.725561105530000e+002" />
  </Platform>
  <Platform PlatformTag="1353" PlatformNo="10205" Name="Avonhead Mall" BearingToRoad="2.4123276e+001" RoadName="Merrin St">
    <Position Lat="-4.350960431000000e+001" Long="1.725537104000000e+002" />
  </Platform>
  <Platform PlatformTag="1354" PlatformNo="10349" Name="Avonhead Mall" BearingToRoad="2.0412328e+002" RoadName="Merrin St">
    <Position Lat="-4.350952595000000e+001" Long="1.725538126000000e+002" />
  </Platform>
  <Platform PlatformTag="2628" PlatformNo="38166" Name="Awatea Rd near Awatea Gdns" BearingToRoad="2.2885313e+002" RoadName="Awatea Rd">
    <Position Lat="-4.355400162000000e+001" Long="1.725381333000000e+002" />
  </Platform>
  <Platform PlatformTag="2629" PlatformNo="38150" Name="Awatea Rd near Awatea Gdns" BearingToRoad="4.8853138e+001" RoadName="Awatea Rd">
    <Position Lat="-4.355417500000000e+001" Long="1.725381087000000e+002" />
  </Platform>
  <Platform PlatformTag="3131" PlatformNo="51001" Name="Awatea Rd near Carrs Rd" BearingToRoad="2.1740402e+002" RoadName="Awatea Rd">
    <Position Lat="-4.356085800000000e+001" Long="1.725501370000000e+002" />
  </Platform>
  <Platform PlatformTag="3132" PlatformNo="51017" Name="Awatea Rd near Carrs Rd" BearingToRoad="3.7637634e+001" RoadName="Awatea Rd">
    <Position Lat="-4.356073400000000e+001" Long="1.725496580000000e+002" />
  </Platform>
  <Platform PlatformTag="2630" PlatformNo="38184" Name="Awatea Rd near Dix St" BearingToRoad="2.2894295e+002" RoadName="Awatea Rd">
    <Position Lat="-4.355254928000000e+001" Long="1.725363262000000e+002" />
  </Platform>
  <Platform PlatformTag="2631" PlatformNo="38178" Name="Awatea Rd near Dix St" BearingToRoad="4.8942947e+001" RoadName="Awatea Rd">
    <Position Lat="-4.355252678000000e+001" Long="1.725360583000000e+002" />
  </Platform>
  <Platform PlatformTag="2626" PlatformNo="39035" Name="Awatea Rd near Owaka Rd" BearingToRoad="2.1702036e+002" RoadName="Awatea Rd">
    <Position Lat="-4.355748844000000e+001" Long="1.725438659000000e+002" />
  </Platform>
  <Platform PlatformTag="2627" PlatformNo="39042" Name="Awatea Rd near Owaka Rd" BearingToRoad="3.7442768e+001" RoadName="Awatea Rd">
    <Position Lat="-4.355773655000000e+001" Long="1.725441068000000e+002" />
  </Platform>
  <Platform PlatformTag="2443" PlatformNo="17658" Name="Aylesbury Rd near Queens Dr" BearingToRoad="2.4333916e+002" RoadName="Aylesbury Rd">
    <Position Lat="-4.361259408000000e+001" Long="1.723127937000000e+002" />
  </Platform>
  <Platform PlatformTag="3000" PlatformNo="50211" Name="Aylesbury Rd near Runners Rd" BearingToRoad="6.3303795e+001" RoadName="Aylesbury Rd">
    <Position Lat="-4.361269202000000e+001" Long="1.723126806000000e+002" />
  </Platform>
  <Platform PlatformTag="3001" PlatformNo="50194" Name="Aylesbury Rd near Two Chain Rd" BearingToRoad="2.4375122e+002" RoadName="Aylesbury Rd">
    <Position Lat="-4.360452892000000e+001" Long="1.723070415000000e+002" />
  </Platform>
  <Platform PlatformTag="2138" PlatformNo="23545" Name="Aylmer St and Colombo St" BearingToRoad="9.0717628e+001" RoadName="Colombo St">
    <Position Lat="-4.355879978900000e+001" Long="1.726367944070000e+002" />
  </Platform>
  <Platform PlatformTag="2231" PlatformNo="19751" Name="Aylsham Ln near Regents Park Dr" BearingToRoad="2.2879271e+002" RoadName="Regent's Park Dr">
    <Position Lat="-4.347033549000000e+001" Long="1.726087244000000e+002" />
  </Platform>
  <Platform PlatformTag="786" PlatformNo="24418" Name="Barbadoes St near Bealey Ave" BearingToRoad="2.7132559e+002" RoadName="Barbadoes St">
    <Position Lat="-4.352011063000000e+001" Long="1.726460480000000e+002" />
  </Platform>
  <Platform PlatformTag="787" PlatformNo="24015" Name="Barbadoes St near Bealey Ave" BearingToRoad="1.0387502e+002" RoadName="Barbadoes St">
    <Position Lat="-4.352034289000000e+001" Long="1.726457945000000e+002" />
  </Platform>
  <Platform PlatformTag="783" PlatformNo="24814" Name="Barbadoes St near Canon St" BearingToRoad="9.0967125e+001" RoadName="Barbadoes St">
    <Position Lat="-4.351544123000000e+001" Long="1.726458562000000e+002" />
  </Platform>
  <Platform PlatformTag="784" PlatformNo="24402" Name="Barbadoes St near Canon St" BearingToRoad="2.7096713e+002" RoadName="Barbadoes St">
    <Position Lat="-4.351553276000000e+001" Long="1.726460355000000e+002" />
  </Platform>
  <Platform PlatformTag="781" PlatformNo="38505" Name="Barbadoes St near Edgeware Rd" BearingToRoad="9.0838089e+001" RoadName="Barbadoes St">
    <Position Lat="-4.351282951000000e+001" Long="1.726458536000000e+002" />
  </Platform>
  <Platform PlatformTag="782" PlatformNo="38364" Name="Barbadoes St near Edgeware Rd" BearingToRoad="2.7083807e+002" RoadName="Barbadoes St">
    <Position Lat="-4.351308138000000e+001" Long="1.726460310000000e+002" />
  </Platform>
  <Platform PlatformTag="780" PlatformNo="38477" Name="Barbadoes St near Edward Ave" BearingToRoad="9.0838089e+001" RoadName="Barbadoes St">
    <Position Lat="-4.351140163000000e+001" Long="1.726458508000000e+002" />
  </Platform>
  <Platform PlatformTag="2622" PlatformNo="38496" Name="Barbadoes St near Edward Ave" BearingToRoad="2.7083807e+002" RoadName="Barbadoes St">
    <Position Lat="-4.351140795000000e+001" Long="1.726460218000000e+002" />
  </Platform>
  <Platform PlatformTag="785" PlatformNo="24441" Name="Barbadoes St near Purchas St" BearingToRoad="2.7132559e+002" RoadName="Barbadoes St">
    <Position Lat="-4.351883244000000e+001" Long="1.726460441000000e+002" />
  </Platform>
  <Platform PlatformTag="2328" PlatformNo="24954" Name="Barbadoes St near Purchas St" BearingToRoad="9.0892426e+001" RoadName="Barbadoes St">
    <Position Lat="-4.351838990000000e+001" Long="1.726458744000000e+002" />
  </Platform>
  <Platform PlatformTag="3168" PlatformNo="52110" Name="Barnard St near Woollcombe St" BearingToRoad="2.5357823e+002" RoadName="Barnard St">
    <Position Lat="-4.439933000000000e+001" Long="1.712544610000000e+002" />
  </Platform>
  <Platform PlatformTag="3179" PlatformNo="52229" Name="Barnard St near Woollcombe St" BearingToRoad="7.3362320e+001" RoadName="Barnard St">
    <Position Lat="-4.439859700000000e+001" Long="1.712540390000000e+002" />
  </Platform>
  <Platform PlatformTag="3386" Name="Barrington Mall" BearingToRoad="3.2195782e+002" RoadName="Athelstan St">
    <Position Lat="-4.355666600000000e+001" Long="1.726208410000000e+002" />
  </Platform>
  <Platform PlatformTag="1625" PlatformNo="22141" Name="Barrington Mall (Athelstan St)" BearingToRoad="1.4201942e+002" RoadName="Athelstan St">
    <Position Lat="-4.355661259000000e+001" Long="1.726206091000000e+002" />
  </Platform>
  <Platform PlatformTag="3099" PlatformNo="22398" Name="Barrington Mall (Athelstan St)" BearingToRoad="3.2208749e+002" RoadName="Athelstan St">
    <Position Lat="-4.355713100000000e+001" Long="1.726200690000000e+002" />
  </Platform>
  <Platform PlatformTag="1640" PlatformNo="11384" Name="Barrington Mall (Barrington St)" BearingToRoad="2.3196443e+002" RoadName="Barrington St">
    <Position Lat="-4.355688096000000e+001" Long="1.726185949000000e+002" />
  </Platform>
  <Platform PlatformTag="1641" PlatformNo="11378" Name="Barrington Mall (Barrington St)" BearingToRoad="5.1964432e+001" RoadName="Barrington St">
    <Position Lat="-4.355638400000000e+001" Long="1.726178190000000e+002" />
  </Platform>
  <Platform PlatformTag="1644" PlatformNo="37600" Name="Barrington St near Bewdley St" BearingToRoad="2.3214296e+002" RoadName="Barrington St">
    <Position Lat="-4.355222154000000e+001" Long="1.726133647000000e+002" />
  </Platform>
  <Platform PlatformTag="1645" PlatformNo="11418" Name="Barrington St near Bewdley St" BearingToRoad="5.2142956e+001" RoadName="Barrington St">
    <Position Lat="-4.355203626000000e+001" Long="1.726129180000000e+002" />
  </Platform>
  <Platform PlatformTag="1636" PlatformNo="22474" Name="Barrington St near Conway St" BearingToRoad="5.1943459e+001" RoadName="Barrington St">
    <Position Lat="-4.356123519000000e+001" Long="1.726232320000000e+002" />
  </Platform>
  <Platform PlatformTag="1637" PlatformNo="22367" Name="Barrington St near Conway St" BearingToRoad="2.3194345e+002" RoadName="Barrington St">
    <Position Lat="-4.356106126000000e+001" Long="1.726232492000000e+002" />
  </Platform>
  <Platform PlatformTag="1647" PlatformNo="11473" Name="Barrington St near Hammond Pl" BearingToRoad="5.2137653e+001" RoadName="Barrington St">
    <Position Lat="-4.355047131000000e+001" Long="1.726111048000000e+002" />
  </Platform>
  <Platform PlatformTag="1646" PlatformNo="37541" Name="Barrington St near Neville St" BearingToRoad="2.2751482e+002" RoadName="Barrington St">
    <Position Lat="-4.355060504000000e+001" Long="1.726114884000000e+002" />
  </Platform>
  <Platform PlatformTag="1638" PlatformNo="22314" Name="Barrington St near Strauss Pl" BearingToRoad="2.3195628e+002" RoadName="Barrington St">
    <Position Lat="-4.355921435000000e+001" Long="1.726211818000000e+002" />
  </Platform>
  <Platform PlatformTag="1639" PlatformNo="22442" Name="Barrington St near Strauss Pl" BearingToRoad="5.1956287e+001" RoadName="Barrington St">
    <Position Lat="-4.355919742000000e+001" Long="1.726209568000000e+002" />
  </Platform>
  <Platform PlatformTag="1643" PlatformNo="11965" Name="Barrington St near Wychbury St" BearingToRoad="5.2210953e+001" RoadName="Barrington St">
    <Position Lat="-4.355461529000000e+001" Long="1.726158120000000e+002" />
  </Platform>
  <Platform PlatformTag="3236" PlatformNo="37556" Name="Barrington St near Wychbury St" BearingToRoad="2.3204233e+002" RoadName="Barrington St">
    <Position Lat="-4.355525500000000e+001" Long="1.726167550000000e+002" />
  </Platform>
  <Platform PlatformTag="790" PlatformNo="39591" Name="Bassett St near Parnwell St" BearingToRoad="2.7751096e+002" RoadName="Bassett St">
    <Position Lat="-4.349701678000000e+001" Long="1.726884588000000e+002" />
  </Platform>
  <Platform PlatformTag="791" PlatformNo="39163" Name="Bassett St near Parnwell St" BearingToRoad="9.7510963e+001" RoadName="Bassett St">
    <Position Lat="-4.349676020000000e+001" Long="1.726883263000000e+002" />
  </Platform>
  <Platform PlatformTag="788" PlatformNo="39090" Name="Bassett St near Tobin Ln" BearingToRoad="2.7738843e+002" RoadName="Bassett St">
    <Position Lat="-4.349957412000000e+001" Long="1.726880568000000e+002" />
  </Platform>
  <Platform PlatformTag="789" PlatformNo="39100" Name="Bassett St near Tobin Ln" BearingToRoad="7.7641349e+000" RoadName="Tobins Ln">
    <Position Lat="-4.349906362000000e+001" Long="1.726879746000000e+002" />
  </Platform>
  <Platform PlatformTag="792" PlatformNo="39214" Name="Bassett St near Vivian St" BearingToRoad="3.0131320e+002" RoadName="Bassett St">
    <Position Lat="-4.349373795000000e+001" Long="1.726907611000000e+002" />
  </Platform>
  <Platform PlatformTag="793" PlatformNo="39159" Name="Bassett St near Vivian St" BearingToRoad="1.2131319e+002" RoadName="Bassett St">
    <Position Lat="-4.349345209000000e+001" Long="1.726907834000000e+002" />
  </Platform>
  <Platform PlatformTag="800" PlatformNo="13713" Name="Beach Rd near Bower Ave" BearingToRoad="1.8000267e+002" RoadName="Beach Rd">
    <Position Lat="-4.348635652000000e+001" Long="1.727126597000000e+002" />
  </Platform>
  <Platform PlatformTag="801" PlatformNo="18584" Name="Beach Rd near Bower Ave" BearingToRoad="2.6730001e-003" RoadName="Beach Rd">
    <Position Lat="-4.348644732000000e+001" Long="1.727125338000000e+002" />
  </Platform>
  <Platform PlatformTag="796" PlatformNo="40869" Name="Beach Rd near Britannia St" BearingToRoad="6.0594998e-002" RoadName="Beach Rd">
    <Position Lat="-4.348637925000000e+001" Long="1.727189564000000e+002" />
  </Platform>
  <Platform PlatformTag="797" PlatformNo="12132" Name="Beach Rd near Britannia St" BearingToRoad="1.8006059e+002" RoadName="Beach Rd">
    <Position Lat="-4.348628021000000e+001" Long="1.727186617000000e+002" />
  </Platform>
  <Platform PlatformTag="805" PlatformNo="12075" Name="Beach Rd near Donnington St" BearingToRoad="1.8014427e+002" RoadName="Beach Rd">
    <Position Lat="-4.348647369000000e+001" Long="1.727044316000000e+002" />
  </Platform>
  <Platform PlatformTag="806" PlatformNo="18681" Name="Beach Rd near Donnington St" BearingToRoad="1.4426500e-001" RoadName="Beach Rd">
    <Position Lat="-4.348658311000000e+001" Long="1.727043435000000e+002" />
  </Platform>
  <Platform PlatformTag="798" PlatformNo="13721" Name="Beach Rd near Effingham St" BearingToRoad="1.8000237e+002" RoadName="Beach Rd">
    <Position Lat="-4.348629228000000e+001" Long="1.727163718000000e+002" />
  </Platform>
  <Platform PlatformTag="799" PlatformNo="18773" Name="Beach Rd near Effingham St" BearingToRoad="2.3699999e-003" RoadName="Beach Rd">
    <Position Lat="-4.348639540000000e+001" Long="1.727162146000000e+002" />
  </Platform>
  <Platform PlatformTag="803" PlatformNo="18699" Name="Beach Rd near Flemington Ave" BearingToRoad="1.2912300e-001" RoadName="Beach Rd">
    <Position Lat="-4.348653395000000e+001" Long="1.727072047000000e+002" />
  </Platform>
  <Platform PlatformTag="804" PlatformNo="12081" Name="Beach Rd near Flemington Ave" BearingToRoad="1.8012912e+002" RoadName="Beach Rd">
    <Position Lat="-4.348644491000000e+001" Long="1.727067696000000e+002" />
  </Platform>
  <Platform PlatformTag="802" PlatformNo="18261" Name="Beach Rd near Pinewood Ave" BearingToRoad="1.9627200e-001" RoadName="Beach Rd">
    <Position Lat="-4.348650481000000e+001" Long="1.727103178000000e+002" />
  </Platform>
  <Platform PlatformTag="901" PlatformNo="19428" Name="Bealey Ave " BearingToRoad="9.1033485e+001" RoadName="Colombo St">
    <Position Lat="-4.352026138000000e+001" Long="1.726365174000000e+002" />
  </Platform>
  <Platform PlatformTag="1303" PlatformNo="14840" Name="Bealey Ave" BearingToRoad="2.7110938e+002" RoadName="Manchester St">
    <Position Lat="-4.352161594000000e+001" Long="1.726397002000000e+002" />
  </Platform>
  <Platform PlatformTag="1414" PlatformNo="12546" Name="Bealey Ave" BearingToRoad="6.3506207e+001" RoadName="Papanui Rd">
    <Position Lat="-4.352024647000000e+001" Long="1.726275056000000e+002" />
  </Platform>
  <Platform PlatformTag="1651" PlatformNo="28830" Name="Bealey Ave" BearingToRoad="1.8085616e+002" RoadName="Bealey Ave">
    <Position Lat="-4.352072088000000e+001" Long="1.726401911000000e+002" />
  </Platform>
  <Platform PlatformTag="1892" PlatformNo="14216" Name="Bealey Ave" BearingToRoad="2.7107935e+002" RoadName="Colombo St">
    <Position Lat="-4.352270246000000e+001" Long="1.726366909000000e+002" />
  </Platform>
  <Platform PlatformTag="1652" PlatformNo="28811" Name="Bealey Ave near Madras St" BearingToRoad="1.8123038e+002" RoadName="Bealey Ave">
    <Position Lat="-4.352071973000000e+001" Long="1.726429960000000e+002" />
  </Platform>
  <Platform PlatformTag="1655" PlatformNo="28797" Name="Bealey Ave near Madras St" BearingToRoad="9.8137897e-001" RoadName="Bealey Ave">
    <Position Lat="-4.352100096000000e+001" Long="1.726420620000000e+002" />
  </Platform>
  <Platform PlatformTag="3095" PlatformNo="52894" Name="Bealey Avenue" BearingToRoad="2.4363510e+002" RoadName="Victoria St">
    <Position Lat="-4.352158800000000e+001" Long="1.726286930000000e+002" />
  </Platform>
  <Platform PlatformTag="1794" PlatformNo="11753" Name="Beckenham" BearingToRoad="2.6755814e+001" RoadName="Centaurus Rd">
    <Position Lat="-4.356913939000000e+001" Long="1.726366266000000e+002" />
  </Platform>
  <Platform PlatformTag="169" PlatformNo="12355" Name="Belfast" BearingToRoad="1.1682533e+002" RoadName="Main North Rd">
    <Position Lat="-4.343842441000000e+001" Long="1.726366557000000e+002" />
  </Platform>
  <Platform PlatformTag="176" PlatformNo="15361" Name="Belfast" BearingToRoad="2.9676678e+002" RoadName="Main North Rd">
    <Position Lat="-4.344364876000000e+001" Long="1.726334966000000e+002" />
  </Platform>
  <Platform PlatformTag="2242" PlatformNo="15374" Name="Belfast" BearingToRoad="2.6964176e+001" RoadName="Factory Rd">
    <Position Lat="-4.344420500000000e+001" Long="1.726363802000000e+002" />
  </Platform>
  <Platform PlatformTag="2760" PlatformNo="41307" Name="Benmore St near Morgans Rd" BearingToRoad="1.9486610e+001" RoadName="Benmore St">
    <Position Lat="-4.438707596000000e+001" Long="1.712084250000000e+002" />
  </Platform>
  <Platform PlatformTag="2758" PlatformNo="43880" Name="Benmore St near Mountain Vw Rd" BearingToRoad="7.6636605e+000" RoadName="Benmore St">
    <Position Lat="-4.438540867000000e+001" Long="1.712040618000000e+002" />
  </Platform>
  <Platform PlatformTag="2759" PlatformNo="41094" Name="Benmore St near Waipori Pl" BearingToRoad="1.9486610e+001" RoadName="Benmore St">
    <Position Lat="-4.438668201000000e+001" Long="1.712068340000000e+002" />
  </Platform>
  <Platform PlatformTag="1656" PlatformNo="24544" Name="Bentley St near Cutts Rd" BearingToRoad="2.0351804e+002" RoadName="Bentley St">
    <Position Lat="-4.351976178000000e+001" Long="1.725433923000000e+002" />
  </Platform>
  <Platform PlatformTag="1657" PlatformNo="24619" Name="Bentley St near Delaware Cres" BearingToRoad="2.0435541e+002" RoadName="Bentley St">
    <Position Lat="-4.351910393000000e+001" Long="1.725412244000000e+002" />
  </Platform>
  <Platform PlatformTag="1658" PlatformNo="24172" Name="Bentley St near Pinehurst Cres" BearingToRoad="5.0026539e+001" RoadName="Bentley St">
    <Position Lat="-4.351889154000000e+001" Long="1.725403347000000e+002" />
  </Platform>
  <Platform PlatformTag="2929" PlatformNo="46011" Name="Birchs Rd near Glenwood Dr" BearingToRoad="2.6287341e+002" RoadName="Birchs Rd">
    <Position Lat="-4.358774294000000e+001" Long="1.725098015000000e+002" />
  </Platform>
  <Platform PlatformTag="2930" PlatformNo="45166" Name="Birchs Rd near Glenwood Dr" BearingToRoad="8.2936234e+001" RoadName="Birchs Rd">
    <Position Lat="-4.358809818000000e+001" Long="1.725096894000000e+002" />
  </Platform>
  <Platform PlatformTag="2928" PlatformNo="47267" Name="Birchs Rd near Grangewood Dr" BearingToRoad="1.1994302e+002" RoadName="Birchs Rd">
    <Position Lat="-4.363356431000000e+001" Long="1.724909986000000e+002" />
  </Platform>
  <Platform PlatformTag="2467" PlatformNo="25897" Name="Birchs Rd near Hamptons Rd" BearingToRoad="8.4990059e+001" RoadName="Birchs Rd">
    <Position Lat="-4.359635008000000e+001" Long="1.725112928000000e+002" />
  </Platform>
  <Platform PlatformTag="2465" PlatformNo="25026" Name="Birchs Rd near Robinsons Rd" BearingToRoad="3.0458389e+002" RoadName="Birchs Rd">
    <Position Lat="-4.361396571000000e+001" Long="1.725087484000000e+002" />
  </Platform>
  <Platform PlatformTag="2466" PlatformNo="28323" Name="Birchs Rd near Robinsons Rd" BearingToRoad="1.2458388e+002" RoadName="Birchs Rd">
    <Position Lat="-4.361390245000000e+001" Long="1.725086413000000e+002" />
  </Platform>
  <Platform PlatformTag="3058" PlatformNo="50604" Name="Birmingham Dr near Craft Pl" BearingToRoad="3.5396970e+002" RoadName="Birmingham Dr">
    <Position Lat="-4.354355300000000e+001" Long="1.725859380000000e+002" />
  </Platform>
  <Platform PlatformTag="3059" PlatformNo="50615" Name="Birmingham Dr near Craft Pl" BearingToRoad="1.7396970e+002" RoadName="Birmingham Dr">
    <Position Lat="-4.354344000000000e+001" Long="1.725859390000000e+002" />
  </Platform>
  <Platform PlatformTag="3056" PlatformNo="50586" Name="Birmingham Dr near Halls Pl" BearingToRoad="6.1809959e+000" RoadName="Birmingham Dr">
    <Position Lat="-4.354493900000000e+001" Long="1.725930850000000e+002" />
  </Platform>
  <Platform PlatformTag="3057" PlatformNo="50593" Name="Birmingham Dr near Halls Pl" BearingToRoad="1.9734802e+002" RoadName="Birmingham Dr">
    <Position Lat="-4.354480500000000e+001" Long="1.725924920000000e+002" />
  </Platform>
  <Platform PlatformTag="2093" PlatformNo="19170" Name="Bishopdale Mall (Harewood Rd)" BearingToRoad="3.0076191e+001" RoadName="Harewood Rd">
    <Position Lat="-4.348792893000000e+001" Long="1.725875309000000e+002" />
  </Platform>
  <Platform PlatformTag="2142" PlatformNo="19492" Name="Bishopdale Mall (Harewood Rd)" BearingToRoad="2.0987619e+002" RoadName="Harewood Rd">
    <Position Lat="-4.348780906000000e+001" Long="1.725878544000000e+002" />
  </Platform>
  <Platform PlatformTag="2923" PlatformNo="47377" Name="Blenheim Rd near Acheron Dr" BearingToRoad="3.5527930e+002" RoadName="Blenheim Rd">
    <Position Lat="-4.353857264000000e+001" Long="1.725843434000000e+002" />
  </Platform>
  <Platform PlatformTag="1682" PlatformNo="32030" Name="Blenheim Rd near Cable St" BearingToRoad="3.0090101e+000" RoadName="Blenheim Rd">
    <Position Lat="-4.353926643000000e+001" Long="1.725614828000000e+002" />
  </Platform>
  <Platform PlatformTag="1680" PlatformNo="28064" Name="Blenheim Rd near Curletts Rd" BearingToRoad="2.2651861e+000" RoadName="Blenheim Rd">
    <Position Lat="-4.353947378000000e+001" Long="1.725693882000000e+002" />
  </Platform>
  <Platform PlatformTag="1681" PlatformNo="28055" Name="Blenheim Rd near Curletts Rd" BearingToRoad="2.6766031e+000" RoadName="Blenheim Rd">
    <Position Lat="-4.353935879000000e+001" Long="1.725659508000000e+002" />
  </Platform>
  <Platform PlatformTag="1691" PlatformNo="28489" Name="Blenheim Rd near Curletts Rd" BearingToRoad="1.8212729e+002" RoadName="Blenheim Rd">
    <Position Lat="-4.353927784000000e+001" Long="1.725703327000000e+002" />
  </Platform>
  <Platform PlatformTag="1679" PlatformNo="28072" Name="Blenheim Rd near Hansons Ln" BearingToRoad="3.5525842e+002" RoadName="Blenheim Rd">
    <Position Lat="-4.353935727000000e+001" Long="1.725734450000000e+002" />
  </Platform>
  <Platform PlatformTag="1690" PlatformNo="40436" Name="Blenheim Rd near Hansons Ln" BearingToRoad="1.7521162e+002" RoadName="Blenheim Rd">
    <Position Lat="-4.353915990000000e+001" Long="1.725735481000000e+002" />
  </Platform>
  <Platform PlatformTag="1688" PlatformNo="28539" Name="Blenheim Rd near Middleton Rd" BearingToRoad="1.7529553e+002" RoadName="Blenheim Rd">
    <Position Lat="-4.353849969000000e+001" Long="1.725825768000000e+002" />
  </Platform>
  <Platform PlatformTag="1678" PlatformNo="29793" Name="Blenheim Rd near Penn Pl" BearingToRoad="3.5543301e+002" RoadName="Blenheim Rd">
    <Position Lat="-4.353891440000000e+001" Long="1.725795572000000e+002" />
  </Platform>
  <Platform PlatformTag="1689" PlatformNo="28525" Name="Blenheim Rd near Penn Pl" BearingToRoad="1.7520151e+002" RoadName="Blenheim Rd">
    <Position Lat="-4.353876916000000e+001" Long="1.725788687000000e+002" />
  </Platform>
  <Platform PlatformTag="1692" PlatformNo="28086" Name="Blenheim Rd near Watts Rd" BearingToRoad="1.8294788e+002" RoadName="Blenheim Rd">
    <Position Lat="-4.353916051000000e+001" Long="1.725652903000000e+002" />
  </Platform>
  <Platform PlatformTag="1693" PlatformNo="29874" Name="Blenheim Rd near Watts Rd" BearingToRoad="1.8279614e+002" RoadName="Blenheim Rd">
    <Position Lat="-4.353905944000000e+001" Long="1.725615078000000e+002" />
  </Platform>
  <Platform PlatformTag="1694" PlatformNo="28093" Name="Blenheim Rd near Watts Rd" BearingToRoad="1.8279614e+002" RoadName="Blenheim Rd">
    <Position Lat="-4.353903476000000e+001" Long="1.725588207000000e+002" />
  </Platform>
  <Platform PlatformTag="2964" PlatformNo="45420" Name="Bluestone Dr near Alpine View">
    <Position Lat="-4.347318500000000e+001" Long="1.726732670000000e+002" />
  </Platform>
  <Platform PlatformTag="2808" PlatformNo="41574" Name="Bouverie St near Grants Rd" BearingToRoad="8.2390762e+001" RoadName="Bouverie St">
    <Position Lat="-4.437542829000000e+001" Long="1.712377984000000e+002" />
  </Platform>
  <Platform PlatformTag="2807" PlatformNo="44964" Name="Bouverie St near Tay St" BearingToRoad="8.2343689e+001" RoadName="Bouverie St">
    <Position Lat="-4.437733813000000e+001" Long="1.712381696000000e+002" />
  </Platform>
  <Platform PlatformTag="816" PlatformNo="20759" Name="Bower Ave" BearingToRoad="2.7748047e+002" RoadName="Bower Ave">
    <Position Lat="-4.349471620000000e+001" Long="1.727110636000000e+002" />
  </Platform>
  <Platform PlatformTag="813" PlatformNo="20613" Name="Bower Ave near Castletown Pl" BearingToRoad="9.8135925e+001" RoadName="Bower Ave">
    <Position Lat="-4.349750818000000e+001" Long="1.727104764000000e+002" />
  </Platform>
  <Platform PlatformTag="814" PlatformNo="20763" Name="Bower Ave near Castletown Pl" BearingToRoad="2.7813593e+002" RoadName="Bower Ave">
    <Position Lat="-4.349755388000000e+001" Long="1.727106401000000e+002" />
  </Platform>
  <Platform PlatformTag="3309" PlatformNo="51663" Name="Bower Ave near Crofts Ln" BearingToRoad="7.7896210e+001" RoadName="Bower Ave">
    <Position Lat="-4.347797100000000e+001" Long="1.727108240000000e+002" />
  </Platform>
  <Platform PlatformTag="3310" PlatformNo="51671" Name="Bower Ave near Crofts Ln" BearingToRoad="2.5789621e+002" RoadName="Bower Ave">
    <Position Lat="-4.347761700000000e+001" Long="1.727108100000000e+002" />
  </Platform>
  <Platform PlatformTag="818" PlatformNo="40190" Name="Bower Ave near Dick Taylor Dr" BearingToRoad="2.7745139e+002" RoadName="Bower Ave">
    <Position Lat="-4.349236211000000e+001" Long="1.727114082000000e+002" />
  </Platform>
  <Platform PlatformTag="819" PlatformNo="20582" Name="Bower Ave near Dick Taylor Dr" BearingToRoad="9.7451378e+001" RoadName="Bower Ave">
    <Position Lat="-4.349205683000000e+001" Long="1.727112908000000e+002" />
  </Platform>
  <Platform PlatformTag="810" PlatformNo="20962" Name="Bower Ave near New Brighton Rd" BearingToRoad="9.7294708e+001" RoadName="Bower Ave">
    <Position Lat="-4.350304257000000e+001" Long="1.727096554000000e+002" />
  </Platform>
  <Platform PlatformTag="815" PlatformNo="20569" Name="Bower Ave near Palmers Rd" BearingToRoad="9.7433228e+001" RoadName="Bower Ave">
    <Position Lat="-4.349603220000000e+001" Long="1.727106958000000e+002" />
  </Platform>
  <Platform PlatformTag="820" PlatformNo="20887" Name="Bower Ave near Pinewood Ave" BearingToRoad="9.5339737e+001" RoadName="Bower Ave">
    <Position Lat="-4.348897515000000e+001" Long="1.727116072000000e+002" />
  </Platform>
  <Platform PlatformTag="821" PlatformNo="40188" Name="Bower Ave near Pinewood Ave" BearingToRoad="2.7533975e+002" RoadName="Bower Ave">
    <Position Lat="-4.348881154000000e+001" Long="1.727117958000000e+002" />
  </Platform>
  <Platform PlatformTag="817" PlatformNo="20576" Name="Bower Ave near Saltaire St" BearingToRoad="9.7480476e+001" RoadName="Bower Ave">
    <Position Lat="-4.349451097000000e+001" Long="1.727109167000000e+002" />
  </Platform>
  <Platform PlatformTag="811" PlatformNo="20771" Name="Bower Ave near Thurso Pl" BearingToRoad="2.7727652e+002" RoadName="Bower Ave">
    <Position Lat="-4.349980954000000e+001" Long="1.727103069000000e+002" />
  </Platform>
  <Platform PlatformTag="812" PlatformNo="20609" Name="Bower Ave near Thurso Pl" BearingToRoad="9.7276527e+001" RoadName="Bower Ave">
    <Position Lat="-4.349974658000000e+001" Long="1.727101414000000e+002" />
  </Platform>
  <Platform PlatformTag="844" PlatformNo="42370" Name="Bridle Path Rd" BearingToRoad="1.0521808e+002" RoadName="Bridle Path Rd">
    <Position Lat="-4.358386427000000e+001" Long="1.727067905000000e+002" />
  </Platform>
  <Platform PlatformTag="845" PlatformNo="42336" Name="Bridle Path Rd" BearingToRoad="2.9392102e+002" RoadName="Bridle Path Rd">
    <Position Lat="-4.358361810000000e+001" Long="1.727070987000000e+002" />
  </Platform>
  <Platform PlatformTag="2550" PlatformNo="42481" Name="Bridle Path Rd near Cannon Hill Cres" BearingToRoad="2.8892081e+002" RoadName="Bridle Path Rd">
    <Position Lat="-4.356314713000000e+001" Long="1.727095012000000e+002" />
  </Platform>
  <Platform PlatformTag="2548" PlatformNo="42304" Name="Bridle Path Rd near Ferrymead Park Dr" BearingToRoad="6.6547729e+001" RoadName="Bridle Path Rd">
    <Position Lat="-4.356657023000000e+001" Long="1.727088170000000e+002" />
  </Platform>
  <Platform PlatformTag="2549" PlatformNo="42327" Name="Bridle Path Rd near Ferrymead Park Dr" BearingToRoad="1.3243900e+002" RoadName="Bridle Path Rd">
    <Position Lat="-4.356375903000000e+001" Long="1.727088296000000e+002" />
  </Platform>
  <Platform PlatformTag="2547" PlatformNo="42389" Name="Bridle Path Rd near Hammerton Ln" BearingToRoad="8.2852913e+001" RoadName="Bridle Path Rd">
    <Position Lat="-4.357149743000000e+001" Long="1.727107741000000e+002" />
  </Platform>
  <Platform PlatformTag="846" PlatformNo="42406" Name="Bridle Path Rd near Port Hills Rd" BearingToRoad="2.9733850e+002" RoadName="Bridle Path Rd">
    <Position Lat="-4.358227718000000e+001" Long="1.727080813000000e+002" />
  </Platform>
  <Platform PlatformTag="2505" PlatformNo="42358" Name="Bridle Path Rd near Port Hills Rd" BearingToRoad="1.1733849e+002" RoadName="Bridle Path Rd">
    <Position Lat="-4.358206488000000e+001" Long="1.727080812000000e+002" />
  </Platform>
  <Platform PlatformTag="848" PlatformNo="42423" Name="Bridle Path Rd near Rollin St" BearingToRoad="2.9686493e+002" RoadName="Bridle Path Rd">
    <Position Lat="-4.357954447000000e+001" Long="1.727098866000000e+002" />
  </Platform>
  <Platform PlatformTag="849" PlatformNo="41056" Name="Bridle Path Rd near Rollin St" BearingToRoad="1.1459766e+002" RoadName="Bridle Path Rd">
    <Position Lat="-4.357889336000000e+001" Long="1.727101394000000e+002" />
  </Platform>
  <Platform PlatformTag="854" PlatformNo="24321" Name="Briggs Rd" BearingToRoad="1.7632220e+000" RoadName="Briggs Rd">
    <Position Lat="-4.349624357000000e+001" Long="1.726530739000000e+002" />
  </Platform>
  <Platform PlatformTag="852" PlatformNo="24724" Name="Briggs Rd near Innes Rd" BearingToRoad="2.2283429e+002" RoadName="Briggs Rd">
    <Position Lat="-4.349515817000000e+001" Long="1.726504245000000e+002" />
  </Platform>
  <Platform PlatformTag="853" PlatformNo="24117" Name="Briggs Rd near Innes Rd" BearingToRoad="5.6123383e+001" RoadName="Briggs Rd">
    <Position Lat="-4.349560983000000e+001" Long="1.726507849000000e+002" />
  </Platform>
  <Platform PlatformTag="2517" PlatformNo="41162" Name="Brittan Tce near Seaview Tce" BearingToRoad="2.9107114e+002" RoadName="Brittan Tce">
    <Position Lat="-4.360460306000000e+001" Long="1.727099876000000e+002" />
  </Platform>
  <Platform PlatformTag="2956" PlatformNo="46736" Name="Brittan Tce near Seaview Tce" BearingToRoad="1.1105910e+002" RoadName="Brittan Tce">
    <Position Lat="-4.360484212000000e+001" Long="1.727097269000000e+002" />
  </Platform>
  <Platform PlatformTag="2515" PlatformNo="41018" Name="Brittan Tce near Simeon Qy" BearingToRoad="1.3984567e+002" RoadName="Brittan Tce">
    <Position Lat="-4.360312691000000e+001" Long="1.727118118000000e+002" />
  </Platform>
  <Platform PlatformTag="2516" PlatformNo="41831" Name="Brittan Tce near Voelas Rd" BearingToRoad="3.1984567e+002" RoadName="Brittan Tce">
    <Position Lat="-4.360336984000000e+001" Long="1.727117051000000e+002" />
  </Platform>
  <Platform PlatformTag="859" PlatformNo="20446" Name="Broadhaven Ave near Anglesea Ave" BearingToRoad="2.0049171e+002" RoadName="Broadhaven Ave">
    <Position Lat="-4.347479682000000e+001" Long="1.727024787000000e+002" />
  </Platform>
  <Platform PlatformTag="857" PlatformNo="20422" Name="Broadhaven Ave near Ferngrove Pl" BearingToRoad="2.5082072e+002" RoadName="Broadhaven Ave">
    <Position Lat="-4.347345615000000e+001" Long="1.726995319000000e+002" />
  </Platform>
  <Platform PlatformTag="858" PlatformNo="20894" Name="Broadhaven Ave near Ferngrove Pl" BearingToRoad="7.0820732e+001" RoadName="Broadhaven Ave">
    <Position Lat="-4.347354967000000e+001" Long="1.726994500000000e+002" />
  </Platform>
  <Platform PlatformTag="860" PlatformNo="20958" Name="Broadhaven Ave near Inwoods Rd" BearingToRoad="2.0491713e+001" RoadName="Broadhaven Ave">
    <Position Lat="-4.347491594000000e+001" Long="1.727025700000000e+002" />
  </Platform>
  <Platform PlatformTag="856" PlatformNo="20405" Name="Broadhaven Ave near Jacaranda Pl" BearingToRoad="2.0681210e+002" RoadName="Broadhaven Ave">
    <Position Lat="-4.347205141000000e+001" Long="1.726983013000000e+002" />
  </Platform>
  <Platform PlatformTag="855" PlatformNo="20507" Name="Broadhaven Ave near Queenspark Dr" BearingToRoad="2.7014229e+001" RoadName="Broadhaven Ave">
    <Position Lat="-4.347173360000000e+001" Long="1.726970459000000e+002" />
  </Platform>
  <Platform PlatformTag="3276" PlatformNo="52771" Name="Broadlands Dr near Goulds Rd" BearingToRoad="1.9215834e+002" RoadName="Broadlands Dr">
    <Position Lat="-4.360673500000000e+001" Long="1.723839810000000e+002" />
  </Platform>
  <Platform PlatformTag="3287" PlatformNo="51436" Name="Broadlands Dve near Goulds Rd" BearingToRoad="1.9215834e+002" RoadName="Broadlands Dr">
    <Position Lat="-4.360663800000000e+001" Long="1.723840050000000e+002" />
  </Platform>
  <Platform PlatformTag="3313" PlatformNo="51709" Name="Bromley Rd near Raymond Rd" BearingToRoad="2.0279779e+002" RoadName="Bromley Rd">
    <Position Lat="-4.353889400000000e+001" Long="1.726916380000000e+002" />
  </Platform>
  <Platform PlatformTag="3314" PlatformNo="51713" Name="Bromley Rd near Raymond Rd" BearingToRoad="2.2797794e+001" RoadName="Bromley Rd">
    <Position Lat="-4.353885700000000e+001" Long="1.726913090000000e+002" />
  </Platform>
  <Platform PlatformTag="3270" PlatformNo="52841" Name="Brookside Rd near East Maddisons Rd" BearingToRoad="3.0598471e+002" RoadName="Brookside Rd">
    <Position Lat="-4.360532100000000e+001" Long="1.723648240000000e+002" />
  </Platform>
  <Platform PlatformTag="3272" PlatformNo="52818" Name="Brookside Rd near East Maddisons Rd" BearingToRoad="1.2598470e+002" RoadName="Brookside Rd">
    <Position Lat="-4.360526500000000e+001" Long="1.723647170000000e+002" />
  </Platform>
  <Platform PlatformTag="3269" PlatformNo="52856" Name="Brookside Rd near Stonebrook Dr" BearingToRoad="3.0582477e+002" RoadName="Brookside Rd">
    <Position Lat="-4.360083900000000e+001" Long="1.723691360000000e+002" />
  </Platform>
  <Platform PlatformTag="3273" PlatformNo="52802" Name="Brookside Rd near Stonebrook Dr" BearingToRoad="1.2582478e+002" RoadName="Brookside Rd">
    <Position Lat="-4.360058200000000e+001" Long="1.723692180000000e+002" />
  </Platform>
  <Platform PlatformTag="1728" PlatformNo="32552" Name="Brougham St near Albemarle St" BearingToRoad="1.2589530e+000" RoadName="Brougham St">
    <Position Lat="-4.354758088000000e+001" Long="1.726411921000000e+002" />
  </Platform>
  <Platform PlatformTag="2365" PlatformNo="32791" Name="Brougham St near Albemarle St" BearingToRoad="1.8103546e+002" RoadName="Brougham St">
    <Position Lat="-4.354734481000000e+001" Long="1.726412464000000e+002" />
  </Platform>
  <Platform PlatformTag="1718" PlatformNo="29148" Name="Brougham St near Barrie St" BearingToRoad="1.7585568e+002" RoadName="Brougham St">
    <Position Lat="-4.354783510000000e+001" Long="1.726259015000000e+002" />
  </Platform>
  <Platform PlatformTag="1721" PlatformNo="32770" Name="Brougham St near Brisbane St" BearingToRoad="1.8150754e+002" RoadName="Brougham St">
    <Position Lat="-4.354733321000000e+001" Long="1.726443652000000e+002" />
  </Platform>
  <Platform PlatformTag="1729" PlatformNo="42971" Name="Brougham St near Brisbane St" BearingToRoad="9.4593799e-001" RoadName="Brougham St">
    <Position Lat="-4.354757029000000e+001" Long="1.726441264000000e+002" />
  </Platform>
  <Platform PlatformTag="1725" PlatformNo="29596" Name="Brougham St near James K Baxter Pl" BearingToRoad="3.4591055e+002" RoadName="Brougham St">
    <Position Lat="-4.354795028000000e+001" Long="1.726267488000000e+002" />
  </Platform>
  <Platform PlatformTag="1724" PlatformNo="29554" Name="Brougham St near Kipling St" BearingToRoad="2.0061335e+001" RoadName="Brougham St">
    <Position Lat="-4.354778185000000e+001" Long="1.726238398000000e+002" />
  </Platform>
  <Platform PlatformTag="1717" PlatformNo="29130" Name="Brougham St near Somerset Cres" BearingToRoad="1.9992194e+002" RoadName="Brougham St">
    <Position Lat="-4.354749609000000e+001" Long="1.726236836000000e+002" />
  </Platform>
  <Platform PlatformTag="1730" PlatformNo="42959" Name="Brougham St near Waltham Rd" BearingToRoad="7.5503302e-001" RoadName="Brougham St">
    <Position Lat="-4.354756728000000e+001" Long="1.726461231000000e+002" />
  </Platform>
  <Platform PlatformTag="1731" PlatformNo="32608" Name="Brougham St near Waltham Rd" BearingToRoad="1.9655855e+001" RoadName="Brougham St">
    <Position Lat="-4.354784598000000e+001" Long="1.726494743000000e+002" />
  </Platform>
  <Platform PlatformTag="1723" PlatformNo="32523" Name="Brougham St near Wilsons Rd" BearingToRoad="1.9603271e+002" RoadName="Brougham St">
    <Position Lat="-4.354822903000000e+001" Long="1.726521610000000e+002" />
  </Platform>
  <Platform PlatformTag="1732" PlatformNo="32612" Name="Brougham St near Wilsons Rd" BearingToRoad="1.3536048e+001" RoadName="Brougham St">
    <Position Lat="-4.354844625000000e+001" Long="1.726521147000000e+002" />
  </Platform>
  <Platform PlatformTag="3169" PlatformNo="52123" Name="Browne St near Rose St" BearingToRoad="3.5985895e+002" RoadName="Browne St">
    <Position Lat="-4.440274700000000e+001" Long="1.712505940000000e+002" />
  </Platform>
  <Platform PlatformTag="3170" PlatformNo="52134" Name="Browne St near Rose St" BearingToRoad="1.7985896e+002" RoadName="Browne St">
    <Position Lat="-4.440261300000000e+001" Long="1.712504750000000e+002" />
  </Platform>
  <Platform PlatformTag="1744" PlatformNo="25003" Name="Buchanans Rd" BearingToRoad="2.3628885e+001" RoadName="Buchanans Rd">
    <Position Lat="-4.353120064000000e+001" Long="1.725308276000000e+002" />
  </Platform>
  <Platform PlatformTag="1739" PlatformNo="24313" Name="Buchanans Rd near Cicada Pl" BearingToRoad="2.0394003e+002" RoadName="Buchanans Rd">
    <Position Lat="-4.353279051000000e+001" Long="1.725366321000000e+002" />
  </Platform>
  <Platform PlatformTag="1740" PlatformNo="25035" Name="Buchanans Rd near Cicada Pl" BearingToRoad="2.3940031e+001" RoadName="Buchanans Rd">
    <Position Lat="-4.353290129000000e+001" Long="1.725364366000000e+002" />
  </Platform>
  <Platform PlatformTag="1742" PlatformNo="32007" Name="Buchanans Rd near Dumfries Dr" BearingToRoad="2.3815470e+001" RoadName="Buchanans Rd">
    <Position Lat="-4.353178144000000e+001" Long="1.725327217000000e+002" />
  </Platform>
  <Platform PlatformTag="2819" PlatformNo="44815" Name="Buchanans Rd near Dumfries Dr" BearingToRoad="2.0381548e+002" RoadName="Buchanans Rd">
    <Position Lat="-4.353160591000000e+001" Long="1.725327551000000e+002" />
  </Platform>
  <Platform PlatformTag="1735" PlatformNo="14198" Name="Buchanans Rd near Peebles Dr" BearingToRoad="2.3096720e+001" RoadName="Buchanans Rd">
    <Position Lat="-4.353463313000000e+001" Long="1.725421519000000e+002" />
  </Platform>
  <Platform PlatformTag="1736" PlatformNo="24062" Name="Buchanans Rd near Peebles Dr" BearingToRoad="2.0309673e+002" RoadName="Buchanans Rd">
    <Position Lat="-4.353443946000000e+001" Long="1.725419411000000e+002" />
  </Platform>
  <Platform PlatformTag="1737" PlatformNo="24332" Name="Buchanans Rd near Peebles Dr" BearingToRoad="2.0397435e+002" RoadName="Buchanans Rd">
    <Position Lat="-4.353372232000000e+001" Long="1.725395671000000e+002" />
  </Platform>
  <Platform PlatformTag="1738" PlatformNo="25042" Name="Buchanans Rd near Peebles Dr" BearingToRoad="2.3974354e+001" RoadName="Buchanans Rd">
    <Position Lat="-4.353378535000000e+001" Long="1.725393264000000e+002" />
  </Platform>
  <Platform PlatformTag="1733" PlatformNo="24460" Name="Buchanans Rd near Racecourse Rd" BearingToRoad="2.0391371e+002" RoadName="Buchanans Rd">
    <Position Lat="-4.353549524000000e+001" Long="1.725454207000000e+002" />
  </Platform>
  <Platform PlatformTag="1734" PlatformNo="14200" Name="Buchanans Rd near Racecourse Rd" BearingToRoad="2.3913712e+001" RoadName="Buchanans Rd">
    <Position Lat="-4.353539909000000e+001" Long="1.725446666000000e+002" />
  </Platform>
  <Platform PlatformTag="1745" PlatformNo="42512" Name="Buchanans Rd near Vanguard Dr" BearingToRoad="2.0376328e+002" RoadName="Buchanans Rd">
    <Position Lat="-4.353064697000000e+001" Long="1.725294212000000e+002" />
  </Platform>
  <Platform PlatformTag="1746" PlatformNo="14244" Name="Buchanans Rd near Vanguard Dr" BearingToRoad="2.3763279e+001" RoadName="Buchanans Rd">
    <Position Lat="-4.353063012000000e+001" Long="1.725289722000000e+002" />
  </Platform>
  <Platform PlatformTag="2154" PlatformNo="18862" Name="Buckleys Rd and Dacre St" BearingToRoad="3.2396176e+002" RoadName="Buckleys Rd">
    <Position Lat="-4.352896678000000e+001" Long="1.726791899000000e+002" />
  </Platform>
  <Platform PlatformTag="867" PlatformNo="11172" Name="Buckleys Rd near Butterfield Ave" BearingToRoad="1.3241119e+002" RoadName="Buckleys Rd">
    <Position Lat="-4.352839812000000e+001" Long="1.726794462000000e+002" />
  </Platform>
  <Platform PlatformTag="2441" PlatformNo="40231" Name="Buckleys Rd near Kerrs Rd" BearingToRoad="3.1605164e+002" RoadName="Buckleys Rd">
    <Position Lat="-4.352712916000000e+001" Long="1.726817659000000e+002" />
  </Platform>
  <Platform PlatformTag="870" PlatformNo="36889" Name="Buckleys Rd near Pamela St" BearingToRoad="3.1066376e+002" RoadName="Buckleys Rd">
    <Position Lat="-4.353050246000000e+001" Long="1.726771532000000e+002" />
  </Platform>
  <Platform PlatformTag="866" PlatformNo="11299" Name="Buckleys Rd near Rhona St" BearingToRoad="1.3286482e+002" RoadName="Buckleys Rd">
    <Position Lat="-4.353064789000000e+001" Long="1.726765540000000e+002" />
  </Platform>
  <Platform PlatformTag="868" PlatformNo="26590" Name="Buckleys Rd near Rudds Rd" BearingToRoad="1.4115086e+002" RoadName="Buckleys Rd">
    <Position Lat="-4.352651301000000e+001" Long="1.726821569000000e+002" />
  </Platform>
  <Platform PlatformTag="2107" PlatformNo="17834" Name="Burnham" BearingToRoad="6.3528107e+001" RoadName="Pukeko St">
    <Position Lat="-4.361618237000000e+001" Long="1.722984451000000e+002" />
  </Platform>
  <Platform PlatformTag="2108" Name="Burnham" BearingToRoad="2.4352811e+002" RoadName="Pukeko St">
    <Position Lat="-4.361636400000000e+001" Long="1.722986300000000e+002" />
  </Platform>
  <Platform PlatformTag="1333" PlatformNo="17156" Name="Burnside High School" BearingToRoad="4.1931484e+001" RoadName="Memorial Ave">
    <Position Lat="-4.350901759000000e+001" Long="1.725748816000000e+002" />
  </Platform>
  <Platform PlatformTag="1342" PlatformNo="32360" Name="Burnside High School" BearingToRoad="2.2191699e+002" RoadName="Memorial Ave">
    <Position Lat="-4.350905241000000e+001" Long="1.725753846000000e+002" />
  </Platform>
  <Platform PlatformTag="3244" PlatformNo="53504" Name="Burwood Hospital - Main Entrance">
    <Position Lat="-4.348063600000000e+001" Long="1.726818110000000e+002" />
  </Platform>
  <Platform PlatformTag="206" PlatformNo="18371" Name="Burwood Hospital - Mairehau Rd" BearingToRoad="3.4118423e+002" RoadName="Mairehau Rd">
    <Position Lat="-4.348228794000000e+001" Long="1.726830987000000e+002" />
  </Platform>
  <Platform PlatformTag="2150" PlatformNo="44316" Name="Burwood Hospital - Mairehau Rd" BearingToRoad="1.6110210e+002" RoadName="Mairehau Rd">
    <Position Lat="-4.348200199000000e+001" Long="1.726836148000000e+002" />
  </Platform>
  <Platform PlatformTag="2983" PlatformNo="45301" Name="Burwood Rd" BearingToRoad="9.0703514e+001" RoadName="Burwood Rd">
    <Position Lat="-4.348093930000000e+001" Long="1.726810353000000e+002" />
  </Platform>
  <Platform PlatformTag="872" PlatformNo="12204" Name="Burwood Rd near Carlsen St" BearingToRoad="1.1226295e+002" RoadName="Burwood Rd">
    <Position Lat="-4.349604967000000e+001" Long="1.726829861000000e+002" />
  </Platform>
  <Platform PlatformTag="873" PlatformNo="18739" Name="Burwood Rd near Carlsen St" BearingToRoad="2.9226297e+002" RoadName="Burwood Rd">
    <Position Lat="-4.349587076000000e+001" Long="1.726832741000000e+002" />
  </Platform>
  <Platform PlatformTag="876" PlatformNo="18756" Name="Burwood Rd near Clarevale St" BearingToRoad="2.5722766e+002" RoadName="Burwood Rd">
    <Position Lat="-4.349061265000000e+001" Long="1.726840633000000e+002" />
  </Platform>
  <Platform PlatformTag="877" PlatformNo="12023" Name="Burwood Rd near Clarevale St" BearingToRoad="7.7227646e+001" RoadName="Burwood Rd">
    <Position Lat="-4.349063673000000e+001" Long="1.726839078000000e+002" />
  </Platform>
  <Platform PlatformTag="880" PlatformNo="18014" Name="Burwood Rd near Helmsdale St" BearingToRoad="2.5725214e+002" RoadName="Burwood Rd">
    <Position Lat="-4.348693837000000e+001" Long="1.726828134000000e+002" />
  </Platform>
  <Platform PlatformTag="881" PlatformNo="13745" Name="Burwood Rd near Helmsdale St" BearingToRoad="7.6712914e+001" RoadName="Burwood Rd">
    <Position Lat="-4.348638764000000e+001" Long="1.726824543000000e+002" />
  </Platform>
  <Platform PlatformTag="874" PlatformNo="12408" Name="Burwood Rd near Lakewood Dr" BearingToRoad="9.4076950e+001" RoadName="Burwood Rd">
    <Position Lat="-4.349355383000000e+001" Long="1.726840277000000e+002" />
  </Platform>
  <Platform PlatformTag="875" PlatformNo="18741" Name="Burwood Rd near Lakewood Dr" BearingToRoad="2.7407693e+002" RoadName="Burwood Rd">
    <Position Lat="-4.349353810000000e+001" Long="1.726841759000000e+002" />
  </Platform>
  <Platform PlatformTag="885" PlatformNo="13732" Name="Burwood Rd near Mairehau Rd" BearingToRoad="9.0726944e+001" RoadName="Burwood Rd">
    <Position Lat="-4.348321456000000e+001" Long="1.726810453000000e+002" />
  </Platform>
  <Platform PlatformTag="878" PlatformNo="18005" Name="Burwood Rd near Newhaven St" BearingToRoad="2.5724704e+002" RoadName="Burwood Rd">
    <Position Lat="-4.348881684000000e+001" Long="1.726834442000000e+002" />
  </Platform>
  <Platform PlatformTag="879" PlatformNo="12121" Name="Burwood Rd near Newhaven St" BearingToRoad="7.7247055e+001" RoadName="Burwood Rd">
    <Position Lat="-4.348818987000000e+001" Long="1.726830665000000e+002" />
  </Platform>
  <Platform PlatformTag="2982" PlatformNo="45546" Name="Burwood Rd near Rothesay Rd" BearingToRoad="8.9804680e+001" RoadName="Burwood Rd">
    <Position Lat="-4.347681713000000e+001" Long="1.726794972000000e+002" />
  </Platform>
  <Platform PlatformTag="2990" PlatformNo="50037" Name="Burwood Rd near Rothesay Rd" BearingToRoad="2.6980469e+002" RoadName="Burwood Rd">
    <Position Lat="-4.347688200000000e+001" Long="1.726796920000000e+002" />
  </Platform>
  <Platform PlatformTag="884" PlatformNo="18363" Name="Burwood Rd near Staffordshire Rd" BearingToRoad="2.7067661e+002" RoadName="Burwood Rd">
    <Position Lat="-4.348340641000000e+001" Long="1.726812232000000e+002" />
  </Platform>
  <Platform PlatformTag="882" PlatformNo="12113" Name="Burwood Rd near Stanford St" BearingToRoad="6.0346756e+001" RoadName="Burwood Rd">
    <Position Lat="-4.348498848000000e+001" Long="1.726818060000000e+002" />
  </Platform>
  <Platform PlatformTag="883" PlatformNo="18274" Name="Burwood Rd near Stanford St" BearingToRoad="2.4034676e+002" RoadName="Burwood Rd">
    <Position Lat="-4.348482767000000e+001" Long="1.726818570000000e+002" />
  </Platform>
  <Platform PlatformTag="1" PlatformNo="53100" Name="Bus Interchange (Platform A)" BearingToRoad="9.1601593e+001" RoadName="Lane A-D">
    <Position Lat="-4.353487900000000e+001" Long="1.726371000000000e+002" />
  </Platform>
  <Platform PlatformTag="2" PlatformNo="53116" Name="Bus Interchange (Platform B)" BearingToRoad="1.3106877e+002" RoadName="Lane A-D">
    <Position Lat="-4.353456500000000e+001" Long="1.726372390000000e+002" />
  </Platform>
  <Platform PlatformTag="3" PlatformNo="53088" Name="Bus Interchange (Platform C)" BearingToRoad="1.8101501e+002" RoadName="Lane A-D">
    <Position Lat="-4.353446100000000e+001" Long="1.726377070000000e+002" />
  </Platform>
  <Platform PlatformTag="4" PlatformNo="53090" Name="Bus Interchange (Platform D)" BearingToRoad="1.8101501e+002" RoadName="Lane A-D">
    <Position Lat="-4.353446000000000e+001" Long="1.726380510000000e+002" />
  </Platform>
  <Platform PlatformTag="3329" PlatformNo="53214" Name="Bus Interchange (Platform L)" BearingToRoad="1.3985718e+000" RoadName="Lichfield St">
    <Position Lat="-4.353425804508456e+001" Long="1.726370745946133e+002" />
  </Platform>
  <Platform PlatformTag="3146" PlatformNo="51296" Name="Bush St near Coates Pl" BearingToRoad="8.0631149e+001" RoadName="Bush St">
    <Position Lat="-4.331215000000000e+001" Long="1.725896010000000e+002" />
  </Platform>
  <Platform PlatformTag="2312" PlatformNo="26640" Name="Bush St near South Blt" BearingToRoad="8.0622360e+001" RoadName="Bush St">
    <Position Lat="-4.331849228000000e+001" Long="1.725911715000000e+002" />
  </Platform>
  <Platform PlatformTag="2592" PlatformNo="44794" Name="Bush St near Strachan Pl" BearingToRoad="2.6080978e+002" RoadName="Bush St">
    <Position Lat="-4.331531084000000e+001" Long="1.725905267000000e+002" />
  </Platform>
  <Platform PlatformTag="2593" PlatformNo="43920" Name="Bush St near Strachan Pl" BearingToRoad="8.0809776e+001" RoadName="Bush St">
    <Position Lat="-4.331524016000000e+001" Long="1.725903686000000e+002" />
  </Platform>
  <Platform PlatformTag="3147" PlatformNo="51306" Name="Bush St near Watson Pl" BearingToRoad="2.6151169e+002" RoadName="Bush St">
    <Position Lat="-4.331242300000000e+001" Long="1.725898840000000e+002" />
  </Platform>
  <Platform PlatformTag="3185" PlatformNo="52286" Name="Cain St - Roncalli College" BearingToRoad="9.0019066e+001" RoadName="Cain St">
    <Position Lat="-4.440265500000000e+001" Long="1.712436250000000e+002" />
  </Platform>
  <Platform PlatformTag="3230" PlatformNo="52666" Name="Cain St - Roncalli College" BearingToRoad="2.7001907e+002" RoadName="Cain St">
    <Position Lat="-4.440303600000000e+001" Long="1.712438180000000e+002" />
  </Platform>
  <Platform PlatformTag="3229" PlatformNo="52650" Name="Cain St near Hassall St" BearingToRoad="8.9579781e+001" RoadName="Cain St">
    <Position Lat="-4.440481800000000e+001" Long="1.712436440000000e+002" />
  </Platform>
  <Platform PlatformTag="3231" PlatformNo="52678" Name="Cain St near Hassall St" BearingToRoad="2.6957977e+002" RoadName="Cain St">
    <Position Lat="-4.440524900000000e+001" Long="1.712438130000000e+002" />
  </Platform>
  <Platform PlatformTag="1752" PlatformNo="16358" Name="Carlton Mill Rd near Cheltenham St" BearingToRoad="1.5714168e+002" RoadName="Carlton Mill Rd">
    <Position Lat="-4.352159881000000e+001" Long="1.726212378000000e+002" />
  </Platform>
  <Platform PlatformTag="1751" PlatformNo="16343" Name="Carlton Mill Rd near Exeter St" BearingToRoad="1.5681310e+002" RoadName="Carlton Mill Rd">
    <Position Lat="-4.352095452000000e+001" Long="1.726232288000000e+002" />
  </Platform>
  <Platform PlatformTag="1753" PlatformNo="10948" Name="Carlton Mill Rd near Hewitts Rd" BearingToRoad="3.3714166e+002" RoadName="Carlton Mill Rd">
    <Position Lat="-4.352192585000000e+001" Long="1.726206869000000e+002" />
  </Platform>
  <Platform PlatformTag="1750" PlatformNo="10660" Name="Carlton Mill Rd near Shrewsbury St" BearingToRoad="3.3681311e+002" RoadName="Carlton Mill Rd">
    <Position Lat="-4.352094385000000e+001" Long="1.726237456000000e+002" />
  </Platform>
  <Platform PlatformTag="1762" PlatformNo="24949" Name="Carmen Rd" BearingToRoad="2.9396094e+002" RoadName="Carmen Rd">
    <Position Lat="-4.352955174000000e+001" Long="1.725332092000000e+002" />
  </Platform>
  <Platform PlatformTag="1760" PlatformNo="32325" Name="Carmen Rd near Halwyn Dr" BearingToRoad="1.1370338e+002" RoadName="Carmen Rd">
    <Position Lat="-4.353255958000000e+001" Long="1.725312133000000e+002" />
  </Platform>
  <Platform PlatformTag="1761" PlatformNo="32048" Name="Carmen Rd near Halwyn Dr" BearingToRoad="2.9370340e+002" RoadName="Carmen Rd">
    <Position Lat="-4.353210833000000e+001" Long="1.725318014000000e+002" />
  </Platform>
  <Platform PlatformTag="1763" PlatformNo="24688" Name="Carmen Rd near Steadman Rd" BearingToRoad="1.1396095e+002" RoadName="Carmen Rd">
    <Position Lat="-4.352884533000000e+001" Long="1.725333777000000e+002" />
  </Platform>
  <Platform PlatformTag="1758" PlatformNo="24931" Name="Carmen Rd near Waterloo Rd" BearingToRoad="2.9419879e+002" RoadName="Carmen Rd">
    <Position Lat="-4.353700354000000e+001" Long="1.725289261000000e+002" />
  </Platform>
  <Platform PlatformTag="1759" PlatformNo="24851" Name="Carmen Rd near Waterloo Rd" BearingToRoad="1.1419878e+002" RoadName="Carmen Rd">
    <Position Lat="-4.353773803000000e+001" Long="1.725282673000000e+002" />
  </Platform>
  <Platform PlatformTag="2061" PlatformNo="23495" Name="Cashmere " BearingToRoad="2.6299484e+002" RoadName="Hackthorne Rd">
    <Position Lat="-4.358110642000000e+001" Long="1.726356167000000e+002" />
  </Platform>
  <Platform PlatformTag="2062" PlatformNo="23476" Name="Cashmere" BearingToRoad="8.2994835e+001" RoadName="Hackthorne Rd">
    <Position Lat="-4.358122807000000e+001" Long="1.726354951000000e+002" />
  </Platform>
  <Platform PlatformTag="1778" PlatformNo="11707" Name="Cashmere Rd" BearingToRoad="3.2079385e+002" RoadName="Cashmere Rd">
    <Position Lat="-4.356691304000000e+001" Long="1.726309740000000e+002" />
  </Platform>
  <Platform PlatformTag="1779" PlatformNo="11880" Name="Cashmere Rd" BearingToRoad="1.4206734e+002" RoadName="Cashmere Rd">
    <Position Lat="-4.356694033000000e+001" Long="1.726306777000000e+002" />
  </Platform>
  <Platform PlatformTag="3034" PlatformNo="33428" Name="Cashmere Rd - Francis Res" BearingToRoad="3.5308987e+002" RoadName="Cashmere Rd">
    <Position Lat="-4.357521000000000e+001" Long="1.726048260000000e+002" />
  </Platform>
  <Platform PlatformTag="1780" PlatformNo="11769" Name="Cashmere Rd near Crichton Tce" BearingToRoad="3.4451447e+002" RoadName="Cashmere Rd">
    <Position Lat="-4.356786565000000e+001" Long="1.726272301000000e+002" />
  </Platform>
  <Platform PlatformTag="1781" PlatformNo="11931" Name="Cashmere Rd near Crichton Tce" BearingToRoad="1.5901591e+002" RoadName="Cashmere Rd">
    <Position Lat="-4.356772820000000e+001" Long="1.726270926000000e+002" />
  </Platform>
  <Platform PlatformTag="1784" PlatformNo="11724" Name="Cashmere Rd near Ferniehurst St" BearingToRoad="2.9311093e+002" RoadName="Cashmere Rd">
    <Position Lat="-4.357165567000000e+001" Long="1.726184231000000e+002" />
  </Platform>
  <Platform PlatformTag="1785" PlatformNo="11782" Name="Cashmere Rd near Ferniehurst St" BearingToRoad="1.1311092e+002" RoadName="Cashmere Rd">
    <Position Lat="-4.357161549000000e+001" Long="1.726182848000000e+002" />
  </Platform>
  <Platform PlatformTag="1788" PlatformNo="33416" Name="Cashmere Rd near Kaiwara St" BearingToRoad="3.5308493e+002" RoadName="Cashmere Rd">
    <Position Lat="-4.357457902000000e+001" Long="1.726107607000000e+002" />
  </Platform>
  <Platform PlatformTag="1789" PlatformNo="33311" Name="Cashmere Rd near Kaiwara St" BearingToRoad="1.7308493e+002" RoadName="Cashmere Rd">
    <Position Lat="-4.357449432000000e+001" Long="1.726104280000000e+002" />
  </Platform>
  <Platform PlatformTag="1786" PlatformNo="33437" Name="Cashmere Rd near Mavin Rd" BearingToRoad="3.5320209e+002" RoadName="Cashmere Rd">
    <Position Lat="-4.357427344000000e+001" Long="1.726136727000000e+002" />
  </Platform>
  <Platform PlatformTag="1787" PlatformNo="33330" Name="Cashmere Rd near Mavin Rd" BearingToRoad="1.7320210e+002" RoadName="Cashmere Rd">
    <Position Lat="-4.357416446000000e+001" Long="1.726136474000000e+002" />
  </Platform>
  <Platform PlatformTag="1790" PlatformNo="33348" Name="Cashmere Rd near Penruddock Rse" BearingToRoad="1.7308493e+002" RoadName="Cashmere Rd">
    <Position Lat="-4.357506325000000e+001" Long="1.726050188000000e+002" />
  </Platform>
  <Platform PlatformTag="1777" PlatformNo="11004" Name="Cashmere Rd near Thorrington Rd" BearingToRoad="2.3141725e+002" RoadName="Cashmere Rd">
    <Position Lat="-4.356660337000000e+001" Long="1.726328808000000e+002" />
  </Platform>
  <Platform PlatformTag="1782" PlatformNo="11730" Name="Cashmere Rd near Valley Rd" BearingToRoad="1.5124782e+002" RoadName="Cashmere Rd">
    <Position Lat="-4.356865006000000e+001" Long="1.726244850000000e+002" />
  </Platform>
  <Platform PlatformTag="1783" PlatformNo="11711" Name="Cashmere Rd near Valley Rd" BearingToRoad="3.3124780e+002" RoadName="Cashmere Rd">
    <Position Lat="-4.356876706000000e+001" Long="1.726246282000000e+002" />
  </Platform>
  <Platform PlatformTag="888" PlatformNo="26311" Name="Caspian St near Rocking Horse Rd" BearingToRoad="3.4099036e+002" RoadName="Caspian St">
    <Position Lat="-4.353859267000000e+001" Long="1.727412091000000e+002" />
  </Platform>
  <Platform PlatformTag="889" PlatformNo="26382" Name="Caspian St near Rocking Horse Rd" BearingToRoad="1.6099037e+002" RoadName="Caspian St">
    <Position Lat="-4.353838276000000e+001" Long="1.727414787000000e+002" />
  </Platform>
  <Platform PlatformTag="3288" PlatformNo="51443" Name="Caulfield Ave &amp; Gosling Cres" BearingToRoad="4.1977154e+001" RoadName="Caulfield Ave">
    <Position Lat="-4.357911200000000e+001" Long="1.725481580000000e+002" />
  </Platform>
  <Platform PlatformTag="3432" PlatformNo="53618" Name="Caulfield Ave near Piper St" BearingToRoad="8.6116753e+001" RoadName="Caulfield Ave">
    <Position Lat="-4.357558268915125e+001" Long="1.725460401883096e+002" />
  </Platform>
  <Platform PlatformTag="3435" PlatformNo="53602" Name="Caulfield Ave near Piper St" BearingToRoad="2.6611676e+002" RoadName="Caulfield Ave">
    <Position Lat="-4.357559584787801e+001" Long="1.725461791677998e+002" />
  </Platform>
  <Platform PlatformTag="2226" PlatformNo="41025" Name="Cavendish Rd near Barnes Rd" BearingToRoad="2.7448932e+002" RoadName="Cavendish Rd">
    <Position Lat="-4.347219388000000e+001" Long="1.726070997000000e+002" />
  </Platform>
  <Platform PlatformTag="2227" PlatformNo="40135" Name="Cavendish Rd near Barnes Rd" BearingToRoad="9.4489319e+001" RoadName="Cavendish Rd">
    <Position Lat="-4.347222093000000e+001" Long="1.726069802000000e+002" />
  </Platform>
  <Platform PlatformTag="890" PlatformNo="40745" Name="Cavendish Rd near Northcote Rd" BearingToRoad="2.7435165e+002" RoadName="Cavendish Rd">
    <Position Lat="-4.348368033000000e+001" Long="1.726062616000000e+002" />
  </Platform>
  <Platform PlatformTag="891" PlatformNo="19975" Name="Cavendish Rd near Northcote Rd" BearingToRoad="9.4351646e+001" RoadName="Cavendish Rd">
    <Position Lat="-4.348365916000000e+001" Long="1.726061134000000e+002" />
  </Platform>
  <Platform PlatformTag="2224" PlatformNo="19999" Name="Cavendish Rd near Sturrocks Rd" BearingToRoad="2.7439438e+002" RoadName="Cavendish Rd">
    <Position Lat="-4.347396585000000e+001" Long="1.726069502000000e+002" />
  </Platform>
  <Platform PlatformTag="2225" PlatformNo="19883" Name="Cavendish Rd near Sturrocks Rd" BearingToRoad="9.4394379e+001" RoadName="Cavendish Rd">
    <Position Lat="-4.347459248000000e+001" Long="1.726067646000000e+002" />
  </Platform>
  <Platform PlatformTag="1811" PlatformNo="23469" Name="Centaurus Rd near Armstrong Ave" BearingToRoad="3.0609741e+001" RoadName="Centaurus Rd">
    <Position Lat="-4.356311956000000e+001" Long="1.726583268000000e+002" />
  </Platform>
  <Platform PlatformTag="1812" PlatformNo="23681" Name="Centaurus Rd near Armstrong Ave" BearingToRoad="2.1060974e+002" RoadName="Centaurus Rd">
    <Position Lat="-4.356303230000000e+001" Long="1.726584758000000e+002" />
  </Platform>
  <Platform PlatformTag="1802" PlatformNo="11043" Name="Centaurus Rd near Austin Kirk Ln" BearingToRoad="1.0819793e+002" RoadName="Centaurus Rd">
    <Position Lat="-4.356527211000000e+001" Long="1.726478299000000e+002" />
  </Platform>
  <Platform PlatformTag="3242" PlatformNo="11690" Name="Centaurus Rd near Austin Kirk Ln" BearingToRoad="2.8871118e+002" RoadName="Centaurus Rd">
    <Position Lat="-4.356523200000000e+001" Long="1.726480520000000e+002" />
  </Platform>
  <Platform PlatformTag="1816" PlatformNo="45514" Name="Centaurus Rd near Aynsley Tce" BearingToRoad="1.5890331e+002" RoadName="Centaurus Rd">
    <Position Lat="-4.356280686000000e+001" Long="1.726629141000000e+002" />
  </Platform>
  <Platform PlatformTag="2486" PlatformNo="11795" Name="Centaurus Rd near Bowenvale Ave" BearingToRoad="3.3207977e+002" RoadName="Centaurus Rd">
    <Position Lat="-4.357055727000000e+001" Long="1.726435745000000e+002" />
  </Platform>
  <Platform PlatformTag="1813" PlatformNo="23668" Name="Centaurus Rd near Hillsborough Tce" BearingToRoad="2.1065990e+002" RoadName="Centaurus Rd">
    <Position Lat="-4.356353219000000e+001" Long="1.726596903000000e+002" />
  </Platform>
  <Platform PlatformTag="1814" PlatformNo="23623" Name="Centaurus Rd near Hillsborough Tce" BearingToRoad="3.3891656e+002" RoadName="Centaurus Rd">
    <Position Lat="-4.356373008000000e+001" Long="1.726602611000000e+002" />
  </Platform>
  <Platform PlatformTag="1797" PlatformNo="11748" Name="Centaurus Rd near Landsdowne Tce" BearingToRoad="1.9250334e+002" RoadName="Centaurus Rd">
    <Position Lat="-4.357061087000000e+001" Long="1.726410551000000e+002" />
  </Platform>
  <Platform PlatformTag="2487" PlatformNo="11688" Name="Centaurus Rd near Major Aitken Dr" BearingToRoad="1.4639699e+002" RoadName="Centaurus Rd">
    <Position Lat="-4.357002711000000e+001" Long="1.726443999000000e+002" />
  </Platform>
  <Platform PlatformTag="1809" PlatformNo="32838" Name="Centaurus Rd near Ramahana Rd" BearingToRoad="1.8050003e+002" RoadName="Centaurus Rd">
    <Position Lat="-4.356280568000000e+001" Long="1.726562537000000e+002" />
  </Platform>
  <Platform PlatformTag="1810" PlatformNo="32654" Name="Centaurus Rd near Ramahana Rd" BearingToRoad="5.0003803e-001" RoadName="Centaurus Rd">
    <Position Lat="-4.356295730000000e+001" Long="1.726556606000000e+002" />
  </Platform>
  <Platform PlatformTag="2363" PlatformNo="11805" Name="Centaurus Rd near Sloan Tce" BearingToRoad="2.0679002e+002" RoadName="Centaurus Rd">
    <Position Lat="-4.357025282000000e+001" Long="1.726401274000000e+002" />
  </Platform>
  <Platform PlatformTag="1804" PlatformNo="11851" Name="Centaurus Rd near St Martins Rd" BearingToRoad="9.3156464e+001" RoadName="Centaurus Rd">
    <Position Lat="-4.356198613000000e+001" Long="1.726503105000000e+002" />
  </Platform>
  <Platform PlatformTag="1805" PlatformNo="11619" Name="Centaurus Rd near St Martins Rd" BearingToRoad="2.7315646e+002" RoadName="Centaurus Rd">
    <Position Lat="-4.356194945000000e+001" Long="1.726504830000000e+002" />
  </Platform>
  <Platform PlatformTag="2364" PlatformNo="11603" Name="Centaurus Rd near Torvill &amp; Dean Ln" BearingToRoad="2.0678255e+002" RoadName="Centaurus Rd">
    <Position Lat="-4.356939801000000e+001" Long="1.726376816000000e+002" />
  </Platform>
  <Platform PlatformTag="1815" PlatformNo="23634" Name="Centaurus Rd near Vernon Tce" BearingToRoad="3.3888956e+002" RoadName="Centaurus Rd">
    <Position Lat="-4.356304890000000e+001" Long="1.726625786000000e+002" />
  </Platform>
  <Platform PlatformTag="1800" PlatformNo="11908" Name="Centaurus Rd near Whaka Tce" BearingToRoad="1.1726044e+002" RoadName="Centaurus Rd">
    <Position Lat="-4.356791377000000e+001" Long="1.726462934000000e+002" />
  </Platform>
  <Platform PlatformTag="1801" PlatformNo="11642" Name="Centaurus Rd near Woodlau Rse" BearingToRoad="2.9726044e+002" RoadName="Centaurus Rd">
    <Position Lat="-4.356744743000000e+001" Long="1.726468418000000e+002" />
  </Platform>
  <Platform PlatformTag="3437" PlatformNo="53687" Name="Central Library Manchester St" BearingToRoad="2.7091779e+002" RoadName="Manchester St">
    <Position Lat="-4.353815700000000e+001" Long="1.726397350000000e+002" />
  </Platform>
  <Platform PlatformTag="3438" PlatformNo="53673" Name="Central Library Manchester St" BearingToRoad="9.1001953e+001" RoadName="Manchester St">
    <Position Lat="-4.353753200000000e+001" Long="1.726395780000000e+002" />
  </Platform>
  <Platform PlatformTag="2895" PlatformNo="45099" Name="Charlesworth St near Ti Rakau Dr" BearingToRoad="1.2654687e+002" RoadName="Charlesworth St">
    <Position Lat="-4.355325698000000e+001" Long="1.726966975000000e+002" />
  </Platform>
  <Platform PlatformTag="2896" PlatformNo="45726" Name="Charlesworth St near Ti Rakau Dr" BearingToRoad="3.0654688e+002" RoadName="Charlesworth St">
    <Position Lat="-4.355351738000000e+001" Long="1.726966023000000e+002" />
  </Platform>
  <Platform PlatformTag="2744" PlatformNo="44862" Name="Chaucer St near Hill Vw Cres" BearingToRoad="1.2033276e+002" RoadName="Chaucer St">
    <Position Lat="-4.439175574000000e+001" Long="1.712198848000000e+002" />
  </Platform>
  <Platform PlatformTag="2957" PlatformNo="45925" Name="Christchurch Gondola">
    <Position Lat="-4.358478472000000e+001" Long="1.727076091000000e+002" />
  </Platform>
  <Platform PlatformTag="1486" PlatformNo="17230" Name="Christchurch Hospital" BearingToRoad="2.3060385e+001" RoadName="Riccarton Ave">
    <Position Lat="-4.353396894600000e+001" Long="1.726223948840000e+002" />
  </Platform>
  <Platform PlatformTag="2102" PlatformNo="14704" Name="Christchurch Hospital" BearingToRoad="1.9110693e+001" RoadName="Tuam St">
    <Position Lat="-4.353526909900000e+001" Long="1.726270424950000e+002" />
  </Platform>
  <Platform PlatformTag="3325" PlatformNo="51824" Name="Christchurch Hospital" BearingToRoad="1.9903070e+002" RoadName="Tuam St">
    <Position Lat="-4.353523125242338e+001" Long="1.726272399720029e+002" />
  </Platform>
  <Platform PlatformTag="2868" PlatformNo="47222" Name="Christchurch International Airport">
    <Position Lat="-4.348780600000000e+001" Long="1.725414090000000e+002" />
  </Platform>
  <Platform PlatformTag="1510" PlatformNo="38871" Name="Church Corner" BearingToRoad="3.5489905e+002" RoadName="Riccarton Rd">
    <Position Lat="-4.353198206800000e+001" Long="1.725731195350000e+002" />
  </Platform>
  <Platform PlatformTag="1511" PlatformNo="38837" Name="Church Corner" BearingToRoad="1.7489903e+002" RoadName="Riccarton Rd">
    <Position Lat="-4.353179048400000e+001" Long="1.725725845230000e+002" />
  </Platform>
  <Platform PlatformTag="2689" PlatformNo="40249" Name="Church St near Bank St" BearingToRoad="2.4137877e+002">
    <Position Lat="-4.439655235000000e+001" Long="1.712506308000000e+002" />
  </Platform>
  <Platform PlatformTag="2695" PlatformNo="40220" Name="Church St near Chapel St" BearingToRoad="3.5975049e+002" RoadName="Church St">
    <Position Lat="-4.439685770000000e+001" Long="1.712478329000000e+002" />
  </Platform>
  <Platform PlatformTag="2696" PlatformNo="44993" Name="Church St near Chapel St" BearingToRoad="1.7975049e+002" RoadName="Church St">
    <Position Lat="-4.439671474000000e+001" Long="1.712478217000000e+002" />
  </Platform>
  <Platform PlatformTag="2732" PlatformNo="40265" Name="Church St near Le Cren St" BearingToRoad="1.7284605e+001" RoadName="Church St">
    <Position Lat="-4.439631350000000e+001" Long="1.712394381000000e+002" />
  </Platform>
  <Platform PlatformTag="2733" PlatformNo="44938" Name="Church St near Le Cren St" BearingToRoad="1.7953333e+002" RoadName="Church St">
    <Position Lat="-4.439612917000000e+001" Long="1.712387823000000e+002" />
  </Platform>
  <Platform PlatformTag="2741" PlatformNo="40594" Name="Church St near Otipua Rd" BearingToRoad="1.7918073e+002" RoadName="Church St">
    <Position Lat="-4.439604965000000e+001" Long="1.712250323000000e+002" />
  </Platform>
  <Platform PlatformTag="2740" PlatformNo="44929" Name="Church St near Rathmore St" BearingToRoad="1.7917735e+002" RoadName="Church St">
    <Position Lat="-4.439604179000000e+001" Long="1.712273469000000e+002" />
  </Platform>
  <Platform PlatformTag="3189" PlatformNo="52357" Name="Church St near Rathmore St" BearingToRoad="3.5917737e+002" RoadName="Church St">
    <Position Lat="-4.439616300000000e+001" Long="1.712271110000000e+002" />
  </Platform>
  <Platform PlatformTag="2690" PlatformNo="40587" Name="Church St near Sophia St" BearingToRoad="1.4252785e+002" RoadName="Church St">
    <Position Lat="-4.439624684000000e+001" Long="1.712509133000000e+002" />
  </Platform>
  <Platform PlatformTag="2697" PlatformNo="44901" Name="Church St near Sutter St" BearingToRoad="1.8062018e+002" RoadName="Church St">
    <Position Lat="-4.439671909000000e+001" Long="1.712454586000000e+002" />
  </Platform>
  <Platform PlatformTag="2698" PlatformNo="40208" Name="Church St near Sutter St" BearingToRoad="6.2018389e-001" RoadName="Church St">
    <Position Lat="-4.439687156000000e+001" Long="1.712453039000000e+002" />
  </Platform>
  <Platform PlatformTag="2730" PlatformNo="44917" Name="Church St near York St" BearingToRoad="1.7957275e+002" RoadName="Church St">
    <Position Lat="-4.439674847000000e+001" Long="1.712418916000000e+002" />
  </Platform>
  <Platform PlatformTag="2731" PlatformNo="40404" Name="Church St near York St" BearingToRoad="3.5957275e+002" RoadName="Church St">
    <Position Lat="-4.439687958000000e+001" Long="1.712417312000000e+002" />
  </Platform>
  <Platform PlatformTag="1826" PlatformNo="37637" Name="Clarence St near Burdale St" BearingToRoad="2.6518652e+002" RoadName="Clarence St">
    <Position Lat="-4.353342348000000e+001" Long="1.726024996000000e+002" />
  </Platform>
  <Platform PlatformTag="2922" PlatformNo="47440" Name="Clarence St near Dilworth St" BearingToRoad="2.6497748e+002" RoadName="Clarence St">
    <Position Lat="-4.353208098000000e+001" Long="1.726023009000000e+002" />
  </Platform>
  <Platform PlatformTag="1824" PlatformNo="11268" Name="Clarence St near Lyndon St" BearingToRoad="8.5434982e+001" RoadName="Clarence St">
    <Position Lat="-4.353553098000000e+001" Long="1.726026356000000e+002" />
  </Platform>
  <Platform PlatformTag="1825" PlatformNo="11460" Name="Clarence St near Lyndon St" BearingToRoad="2.5806412e+002" RoadName="Clarence St">
    <Position Lat="-4.353560759000000e+001" Long="1.726028463000000e+002" />
  </Platform>
  <Platform PlatformTag="1827" PlatformNo="11949" Name="Clarence St near Peverel St" BearingToRoad="8.4971786e+001" RoadName="Clarence St">
    <Position Lat="-4.353126671000000e+001" Long="1.726020476000000e+002" />
  </Platform>
  <Platform PlatformTag="2220" PlatformNo="19831" Name="Claridges Rd near Opal Pl" BearingToRoad="3.0245493e+001" RoadName="Claridges Rd">
    <Position Lat="-4.347619260000000e+001" Long="1.726007841000000e+002" />
  </Platform>
  <Platform PlatformTag="2221" PlatformNo="19002" Name="Claridges Rd near Opal Pl" BearingToRoad="2.1024550e+002" RoadName="Claridges Rd">
    <Position Lat="-4.347598551000000e+001" Long="1.726006036000000e+002" />
  </Platform>
  <Platform PlatformTag="2153" PlatformNo="42596" Name="Clifton Tce and Main Rd" BearingToRoad="5.0437244e+001" RoadName="Main Rd">
    <Position Lat="-4.356564037000000e+001" Long="1.727552565530000e+002" />
  </Platform>
  <Platform PlatformTag="1840" PlatformNo="10850" Name="Clyde Rd near Aorangi Rd" BearingToRoad="4.9932652e+001" RoadName="Clyde Rd">
    <Position Lat="-4.350714943000000e+001" Long="1.725878874000000e+002" />
  </Platform>
  <Platform PlatformTag="1829" PlatformNo="13135" Name="Clyde Rd near Arts Rd" BearingToRoad="1.1247290e+002" RoadName="Clyde Rd">
    <Position Lat="-4.352410269000000e+001" Long="1.725883997000000e+002" />
  </Platform>
  <Platform PlatformTag="1830" PlatformNo="13254" Name="Clyde Rd near Arts Rd" BearingToRoad="2.9247290e+002" RoadName="Clyde Rd">
    <Position Lat="-4.352387618000000e+001" Long="1.725886947000000e+002" />
  </Platform>
  <Platform PlatformTag="1838" PlatformNo="13093" Name="Clyde Rd near Evatt St" BearingToRoad="7.5753395e+001" RoadName="Clyde Rd">
    <Position Lat="-4.350854714000000e+001" Long="1.725888224000000e+002" />
  </Platform>
  <Platform PlatformTag="2431" PlatformNo="10625" Name="Clyde Rd near Evatt St" BearingToRoad="2.4944026e+002" RoadName="Clyde Rd">
    <Position Lat="-4.350781369000000e+001" Long="1.725887310000000e+002" />
  </Platform>
  <Platform PlatformTag="1831" PlatformNo="13142" Name="Clyde Rd near Fendalton Rd" BearingToRoad="9.7660789e+001" RoadName="Clyde Rd">
    <Position Lat="-4.351757305000000e+001" Long="1.725904526000000e+002" />
  </Platform>
  <Platform PlatformTag="1832" PlatformNo="13375" Name="Clyde Rd near Fendalton Rd" BearingToRoad="2.7766080e+002" RoadName="Clyde Rd">
    <Position Lat="-4.351614489000000e+001" Long="1.725908279000000e+002" />
  </Platform>
  <Platform PlatformTag="1833" PlatformNo="13072" Name="Clyde Rd near Fendalton Rd" BearingToRoad="9.1658707e+001" RoadName="Clyde Rd">
    <Position Lat="-4.351563479000000e+001" Long="1.725907380000000e+002" />
  </Platform>
  <Platform PlatformTag="2632" PlatformNo="38726" Name="Clyde Rd near Hinau St" BearingToRoad="9.5649139e+001" RoadName="Clyde Rd">
    <Position Lat="-4.352771173000000e+001" Long="1.725870038000000e+002" />
  </Platform>
  <Platform PlatformTag="1843" PlatformNo="10641" Name="Clyde Rd near Hooker Ave" BearingToRoad="1.8524973e+002" RoadName="Clyde Rd">
    <Position Lat="-4.350497545000000e+001" Long="1.725847730000000e+002" />
  </Platform>
  <Platform PlatformTag="1844" PlatformNo="10813" Name="Clyde Rd near Hooker Ave" BearingToRoad="5.2497258e+000" RoadName="Clyde Rd">
    <Position Lat="-4.350502945000000e+001" Long="1.725842030000000e+002" />
  </Platform>
  <Platform PlatformTag="2101" PlatformNo="42842" Name="Clyde Rd near Ilam Rd" BearingToRoad="2.5578552e+002" RoadName="Clyde Rd">
    <Position Lat="-4.350959206000000e+001" Long="1.725893841000000e+002" />
  </Platform>
  <Platform PlatformTag="1834" PlatformNo="10591" Name="Clyde Rd near Jeffreys Rd" BearingToRoad="2.5583740e+002" RoadName="Clyde Rd">
    <Position Lat="-4.351345215000000e+001" Long="1.725908082000000e+002" />
  </Platform>
  <Platform PlatformTag="1835" PlatformNo="10602" Name="Clyde Rd near Jeffreys Rd" BearingToRoad="7.5837402e+001" RoadName="Clyde Rd">
    <Position Lat="-4.351310643000000e+001" Long="1.725905312000000e+002" />
  </Platform>
  <Platform PlatformTag="1841" PlatformNo="10639" Name="Clyde Rd near Morley St" BearingToRoad="2.3640617e+002" RoadName="Clyde Rd">
    <Position Lat="-4.350562357000000e+001" Long="1.725867735000000e+002" />
  </Platform>
  <Platform PlatformTag="1842" PlatformNo="10832" Name="Clyde Rd near Morley St" BearingToRoad="5.4901001e+001" RoadName="Clyde Rd">
    <Position Lat="-4.350566400000000e+001" Long="1.725866660000000e+002" />
  </Platform>
  <Platform PlatformTag="2192" PlatformNo="38757" Name="Clyde Rd near Totara St" BearingToRoad="2.7560693e+002" RoadName="Clyde Rd">
    <Position Lat="-4.352895201000000e+001" Long="1.725870539000000e+002" />
  </Platform>
  <Platform PlatformTag="1836" PlatformNo="10618" Name="Clyde Rd near Wai-iti Tce" BearingToRoad="2.5583740e+002" RoadName="Clyde Rd">
    <Position Lat="-4.351148272000000e+001" Long="1.725900699000000e+002" />
  </Platform>
  <Platform PlatformTag="1837" PlatformNo="13086" Name="Clyde Rd near Wai-iti Tce" BearingToRoad="7.5594131e+001" RoadName="Clyde Rd">
    <Position Lat="-4.351082850000000e+001" Long="1.725896741000000e+002" />
  </Platform>
  <Platform PlatformTag="1845" PlatformNo="22059" Name="Cobham St near Clent Ln" BearingToRoad="3.2193219e+002" RoadName="Cobham St">
    <Position Lat="-4.355565193000000e+001" Long="1.726092196000000e+002" />
  </Platform>
  <Platform PlatformTag="2395" PlatformNo="33693" Name="Cobham St near Clent Ln" BearingToRoad="1.4193219e+002" RoadName="Cobham St">
    <Position Lat="-4.355553884000000e+001" Long="1.726092161000000e+002" />
  </Platform>
  <Platform PlatformTag="1846" PlatformNo="22063" Name="Cobham St near Evesham Cres" BearingToRoad="3.2215771e+002" RoadName="Cobham St">
    <Position Lat="-4.355457138000000e+001" Long="1.726110661000000e+002" />
  </Platform>
  <Platform PlatformTag="1847" PlatformNo="33601" Name="Cobham St near Evesham Cres" BearingToRoad="1.4215773e+002" RoadName="Cobham St">
    <Position Lat="-4.355435826000000e+001" Long="1.726112371000000e+002" />
  </Platform>
  <Platform PlatformTag="898" PlatformNo="42772" Name="Colenso St near Menzies St" BearingToRoad="2.2048073e+002" RoadName="Colenso St">
    <Position Lat="-4.357549964500000e+001" Long="1.727629929770000e+002" />
  </Platform>
  <Platform PlatformTag="899" PlatformNo="42698" Name="Colenso St near Menzies St" BearingToRoad="4.0480724e+001" RoadName="Colenso St">
    <Position Lat="-4.357575214500000e+001" Long="1.727631350900000e+002" />
  </Platform>
  <Platform PlatformTag="3183" PlatformNo="52264" Name="College Rd near Cain St" BearingToRoad="1.7975578e+002" RoadName="College Rd">
    <Position Lat="-4.440788500000000e+001" Long="1.712440760000000e+002" />
  </Platform>
  <Platform PlatformTag="3184" PlatformNo="52272" Name="College Rd near Cain St" BearingToRoad="3.5975580e+002" RoadName="College Rd">
    <Position Lat="-4.440800100000000e+001" Long="1.712444650000000e+002" />
  </Platform>
  <Platform PlatformTag="3181" PlatformNo="52240" Name="College Rd near SH-1" BearingToRoad="3.5963220e+002" RoadName="College Rd">
    <Position Lat="-4.440800300000000e+001" Long="1.712478920000000e+002" />
  </Platform>
  <Platform PlatformTag="3182" PlatformNo="52255" Name="College Rd near SH-1" BearingToRoad="1.7963220e+002" RoadName="College Rd">
    <Position Lat="-4.440786200000000e+001" Long="1.712480710000000e+002" />
  </Platform>
  <Platform PlatformTag="2137" PlatformNo="23328" Name="Colombo St and Somerfield St" BearingToRoad="9.0761101e+001" RoadName="Colombo St">
    <Position Lat="-4.355623447400000e+001" Long="1.726367700020000e+002" />
  </Platform>
  <Platform PlatformTag="900" PlatformNo="40616" Name="Colombo St near Bealey Ave" BearingToRoad="2.7103348e+002" RoadName="Colombo St">
    <Position Lat="-4.352038200000000e+001" Long="1.726366780000000e+002" />
  </Platform>
  <Platform PlatformTag="1893" PlatformNo="14990" Name="Colombo St near Bealey Ave" BearingToRoad="9.1079353e+001" RoadName="Colombo St">
    <Position Lat="-4.352203832000000e+001" Long="1.726365196000000e+002" />
  </Platform>
  <Platform PlatformTag="1857" PlatformNo="23917" Name="Colombo St near Boon St" BearingToRoad="2.7084195e+002" RoadName="Colombo St">
    <Position Lat="-4.355439223400000e+001" Long="1.726369267550000e+002" />
  </Platform>
  <Platform PlatformTag="1867" PlatformNo="23955" Name="Colombo St near Byron St" BearingToRoad="2.7108859e+002" RoadName="Colombo St">
    <Position Lat="-4.354294777000000e+001" Long="1.726367418000000e+002" />
  </Platform>
  <Platform PlatformTag="904" PlatformNo="45184" Name="Colombo St near Canon St" BearingToRoad="2.7086694e+002" RoadName="Colombo St">
    <Position Lat="-4.351597470000000e+001" Long="1.726366705000000e+002" />
  </Platform>
  <Platform PlatformTag="905" PlatformNo="19400" Name="Colombo St near Canon St" BearingToRoad="9.1052917e+001" RoadName="Colombo St">
    <Position Lat="-4.351531363000000e+001" Long="1.726365043000000e+002" />
  </Platform>
  <Platform PlatformTag="1868" PlatformNo="42874" Name="Colombo St near Cass St" BearingToRoad="9.1191368e+001" RoadName="Colombo St">
    <Position Lat="-4.354216224000000e+001" Long="1.726365867000000e+002" />
  </Platform>
  <Platform PlatformTag="1858" PlatformNo="23337" Name="Colombo St near Devon St" BearingToRoad="9.0613541e+001" RoadName="Colombo St">
    <Position Lat="-4.355340893300000e+001" Long="1.726367424520000e+002" />
  </Platform>
  <Platform PlatformTag="1852" PlatformNo="23787" Name="Colombo St near Ernlea Tce" BearingToRoad="2.6929913e+002" RoadName="Colombo St">
    <Position Lat="-4.356225523700000e+001" Long="1.726370583010000e+002" />
  </Platform>
  <Platform PlatformTag="1853" PlatformNo="23550" Name="Colombo St near Fisher Ave" BearingToRoad="9.0518829e+001" RoadName="Colombo St">
    <Position Lat="-4.356025396000000e+001" Long="1.726368079420000e+002" />
  </Platform>
  <Platform PlatformTag="1854" PlatformNo="32011" Name="Colombo St near Fisher Ave" BearingToRoad="2.7051883e+002" RoadName="Colombo St">
    <Position Lat="-4.356023018800000e+001" Long="1.726369773720000e+002" />
  </Platform>
  <Platform PlatformTag="1862" PlatformNo="23226" Name="Colombo St near Hastings St W" BearingToRoad="9.0008850e+001" RoadName="Colombo St">
    <Position Lat="-4.354888236000000e+001" Long="1.726366433000000e+002" />
  </Platform>
  <Platform PlatformTag="1860" PlatformNo="23235" Name="Colombo St near King St" BearingToRoad="9.0051605e+001" RoadName="Colombo St">
    <Position Lat="-4.355144385700000e+001" Long="1.726367162460000e+002" />
  </Platform>
  <Platform PlatformTag="1866" PlatformNo="23371" Name="Colombo St near Lawson St" BearingToRoad="9.1127693e+001" RoadName="Colombo St">
    <Position Lat="-4.354434025000000e+001" Long="1.726365875000000e+002" />
  </Platform>
  <Platform PlatformTag="1851" PlatformNo="23584" Name="Colombo St near Nutfield Ln" BearingToRoad="8.9299133e+001" RoadName="Colombo St">
    <Position Lat="-4.356188149600000e+001" Long="1.726368658370000e+002" />
  </Platform>
  <Platform PlatformTag="902" PlatformNo="19376" Name="Colombo St near Purchas St" BearingToRoad="9.1033485e+001" RoadName="Colombo St">
    <Position Lat="-4.351870532000000e+001" Long="1.726365091000000e+002" />
  </Platform>
  <Platform PlatformTag="2493" PlatformNo="37399" Name="Colombo St near Remuera Ave" BearingToRoad="3.0625793e+002" RoadName="Colombo St">
    <Position Lat="-4.356611166900000e+001" Long="1.726365150300000e+002" />
  </Platform>
  <Platform PlatformTag="1890" PlatformNo="14413" Name="Colombo St near Salisbury St" BearingToRoad="9.1079353e+001" RoadName="Colombo St">
    <Position Lat="-4.352412758000000e+001" Long="1.726365173000000e+002" />
  </Platform>
  <Platform PlatformTag="1891" PlatformNo="14180" Name="Colombo St near Salisbury St" BearingToRoad="2.7107935e+002" RoadName="Colombo St">
    <Position Lat="-4.352390006000000e+001" Long="1.726366942000000e+002" />
  </Platform>
  <Platform PlatformTag="1856" PlatformNo="23741" Name="Colombo St near Somerfield St" BearingToRoad="2.7076111e+002" RoadName="Colombo St">
    <Position Lat="-4.355638834300000e+001" Long="1.726369598600000e+002" />
  </Platform>
  <Platform PlatformTag="1859" PlatformNo="23940" Name="Colombo St near Southampton St" BearingToRoad="2.7040775e+002" RoadName="Colombo St">
    <Position Lat="-4.355256144600000e+001" Long="1.726369226580000e+002" />
  </Platform>
  <Platform PlatformTag="1855" PlatformNo="23794" Name="Colombo St near Tennyson St" BearingToRoad="2.7071762e+002" RoadName="Colombo St">
    <Position Lat="-4.355881556200000e+001" Long="1.726369788240000e+002" />
  </Platform>
  <Platform PlatformTag="1849" PlatformNo="23606" Name="Colombo St near Thorrington Rd" BearingToRoad="8.9456078e+001" RoadName="Colombo St">
    <Position Lat="-4.356468627400000e+001" Long="1.726369748990000e+002" />
  </Platform>
  <Platform PlatformTag="1850" PlatformNo="23756" Name="Colombo St near Thorrington Rd" BearingToRoad="2.6945609e+002" RoadName="Colombo St">
    <Position Lat="-4.356445315600000e+001" Long="1.726371522810000e+002" />
  </Platform>
  <Platform PlatformTag="1861" PlatformNo="23891" Name="Colombo St near Walton St" BearingToRoad="2.7003128e+002" RoadName="Colombo St">
    <Position Lat="-4.354928768000000e+001" Long="1.726368557000000e+002" />
  </Platform>
  <Platform PlatformTag="1848" PlatformNo="23257" Name="Colombo St near Woodbridge Rd" BearingToRoad="1.2826413e+002" RoadName="Colombo St">
    <Position Lat="-4.356698531300000e+001" Long="1.726353358560000e+002" />
  </Platform>
  <Platform PlatformTag="1865" PlatformNo="23836" Name="Colombo St near Wordsworth St" BearingToRoad="2.7105087e+002" RoadName="Colombo St">
    <Position Lat="-4.354513966000000e+001" Long="1.726367495000000e+002" />
  </Platform>
  <Platform PlatformTag="2815" PlatformNo="41526" Name="Cook St near Beaumont St" BearingToRoad="1.0918223e+002" RoadName="Cook St">
    <Position Lat="-4.436989252000000e+001" Long="1.712418967000000e+002" />
  </Platform>
  <Platform PlatformTag="2663" PlatformNo="43313" Name="Coonoor Rd near Cornwall St" BearingToRoad="1.5023801e+002" RoadName="Coonoor Rd">
    <Position Lat="-4.440622604000000e+001" Long="1.712296734000000e+002" />
  </Platform>
  <Platform PlatformTag="2664" PlatformNo="43206" Name="Coonoor Rd near Otipua Rd" BearingToRoad="1.8378062e+002" RoadName="Coonoor Rd">
    <Position Lat="-4.440542577000000e+001" Long="1.712325341000000e+002" />
  </Platform>
  <Platform PlatformTag="2662" PlatformNo="43332" Name="Cornwall St near Somerset St" BearingToRoad="5.2147507e+001" RoadName="Cornwall St">
    <Position Lat="-4.440733474000000e+001" Long="1.712293576000000e+002" />
  </Platform>
  <Platform PlatformTag="1908" PlatformNo="22085" Name="Coronation St near Selwyn St" BearingToRoad="3.2192377e+002" RoadName="Coronation St">
    <Position Lat="-4.354989426000000e+001" Long="1.726211236000000e+002" />
  </Platform>
  <Platform PlatformTag="1909" PlatformNo="33664" Name="Coronation St near Selwyn St" BearingToRoad="1.4192377e+002" RoadName="Coronation St">
    <Position Lat="-4.354956960000000e+001" Long="1.726214003000000e+002" />
  </Platform>
  <Platform PlatformTag="1906" PlatformNo="22847" Name="Coronation St near Simeon St" BearingToRoad="3.2192377e+002" RoadName="Coronation St">
    <Position Lat="-4.355137207000000e+001" Long="1.726186256000000e+002" />
  </Platform>
  <Platform PlatformTag="1907" PlatformNo="33629" Name="Coronation St near Simeon St" BearingToRoad="1.4192377e+002" RoadName="Coronation St">
    <Position Lat="-4.355122492000000e+001" Long="1.726186083000000e+002" />
  </Platform>
  <Platform PlatformTag="3383" PlatformNo="53440" Name="Corsair Dr - The Landing" BearingToRoad="2.3737344e+002" RoadName="Corsair Dr">
    <Position Lat="-4.355340900000000e+001" Long="1.725563500000000e+002" />
  </Platform>
  <Platform PlatformTag="3294" PlatformNo="51502" Name="Corsair Dr near Grebe Pl" BearingToRoad="4.0997799e+001" RoadName="Corsair Dr">
    <Position Lat="-4.354779100000000e+001" Long="1.725443580000000e+002" />
  </Platform>
  <Platform PlatformTag="3295" PlatformNo="51518" Name="Corsair Dr near Harvard Ave" BearingToRoad="2.2427002e+002" RoadName="Corsair Dr">
    <Position Lat="-4.354798700000000e+001" Long="1.725448380000000e+002" />
  </Platform>
